,이름,충전타입,주소,위도,경도,출력,충전방식,지역코드,이용자제한,이용자제한사유,무료 주차,실시간 상태(5분),0 : 1
0,종묘 공영주차장,03,서울특별시 종로구 종로 157,37.571076,126.99588,50,단독,11,,,Y,9,9
1,세종로 공영주차장,06,서울특별시 종로구 세종대로 189,37.573611,126.976011,50,단독,11,,,Y,9,9
2,그랜드앰배서더 서울,06,서울특별시 중구 동호로 287,37.559352,127.002350,50,단독,11,,,N,9,9
3,한강진역 공영주차장,03,서울특별시 용산구 한남동 산10-84,37.540085,127.002804,50,단독,11,,,Y,9,9
4,마장동사무소 앞(공중전화부스),06,서울특별시 성동구 마장동 808,37.5660935,127.0455256,50,단독,11,,,N,9,9
5,청량리롯데백화점,03,서울특별시 동대문구 왕산로 214,37.580650,127.047938,50,단독,11,,,N,9,9
6,이마트 이문점,03,서울특별시 동대문구 이문로 136,37.598454,127.061848,50,단독,11,,,N,9,9
7,홈플러스 월곡점,03,서울특별시 성북구 화랑로 76,37.60208293,127.04002398,50,단독,11,,,N,9,9
8,성북벤처빌딩 공영주차장,06,서울특별시 성북구 장위2동 65-154,37.60936,127.053263,50,단독,11,,,N,2,2
9,롯데마트 삼양점,03,서울특별시 강북구 삼양로 247,37.625405,127.017897,50,단독,11,,,N,9,9
10,이마트 은평점,03,서울특별시 은평구 은평로 111,37.60047527,126.92047408,50,단독,11,,,N,9,9
11,구파발역 환승주차장,03,서울특별시 은평구 진관동 66-30,37.637910,126.91910,50,단독,11,,,Y,9,9
12,홈플러스 월드컵점,03,서울특별시 마포구 월드컵로 240,37.566685,126.898753,50,단독,11,,,N,9,9
13,시설관리공단 마포유수지주차장,03,서울특별시 마포구 마포대로1길 19,37.539442,126.943054,50,단독,11,,,Y,9,9
14,홈플러스 목동점,03,서울특별시 양천구 목동서로 170,37.52992611,126.87364033,50,단독,11,,,N,9,9
15,해맞이공영주차장,06,서울특별시 양천구 지양로 47,37.520062,126.834854,50,단독,11,,,N,9,9
16,홈플러스 가양점,03,서울특별시 강서구 양천로 431,37.56401856,126.85059572,50,단독,11,,,N,9,9
17,롯데마트 김포공항점,06,서울특별시 강서구 하늘길 77,37.563453,126.803539,50,단독,11,,,Y,9,9
18,메이필드호텔,06,서울특별시 강서구 방화대로 94,37.546851,126.818613,50,단독,11,,,N,9,9
19,천왕역 환승주차장,03,서울특별시 구로구 오류동 174-10,37.487234,126.839153,50,단독,11,,,Y,9,9
20,구로리공원 앞(공중전화부스),06,서울특별시 구로구 구로동 136-14,37.4912466,126.8919514,50,단독,11,,,N,9,9
21,홈플러스 시흥점,03,서울특별시 금천구 시흥대로 201,37.45222814,126.90093936,50,단독,11,,,N,9,9
22,제일모직아울렛 건너편(공중전화부스),06,서울특별시 금천구 가산동 239-27,37.4744454,126.8867302,50,단독,11,,,N,9,9
23,영등포구 대신시장(공중전화부스),06,서울특별시 영등포구 신길1동 116-15,37.5113404,126.9176919,50,단독,11,,,N,2,2
24,동작주차공원 공영주차장,06,서울특별시 동작구 현충로 213,37.503803,126.976775,50,단독,11,,,Y,9,9
25,조원동 제1공영주차장,06,서울특별시 관악구 신림동 571-6,37.481069,126.905703,50,단독,11,,,N,2,2
26,사당역 공영주차장,03,서울특별시 서초구 과천대로 950-18,37.475256,126.982638,50,단독,11,,,Y,9,9
27,이마트 양재점,03,서울특별시 서초구 매헌로 16,37.463293,127.036812,50,단독,11,,,N,9,9
28,수서역 공영주차장,03,서울특별시 강남구 수서동 735,37.487569,127.101016,50,단독,11,,,Y,9,9
29,학여울역 공영주차장,03,서울특별시 강남구 남부순환로 3104,37.496722,127.070444,50,단독,11,,,Y,9,9
30,롯데마트 잠실점,03,서울특별시 송파구 올림픽로 240,37.511818,127.096321,50,단독,11,,,N,9,9
31,이마트 명일점,03,서울특별시 강동구 고덕로 276,37.554606,127.155966,50,단독,11,,,N,9,9
32,노보텔,06,서울특별시 강남구 봉은사로 130,37.5052721,127.0289991,50,단독,11,,,N,2,2
33,암사1동 공영주차장,06,서울특별시 강동구 고덕로28길 36,37.5529087,127.1372547,50,단독,11,,,N,2,2
34,천호유수지 공영주차장,06,서울특별시 강동구 선사로 70,37.5448122,127.1218396,50,단독,11,,,N,2,2
35,천호3동 제1공영주차장,06,서울특별시 강동구 진황도로29길 34,37.5387951,127.1333987,50,단독,11,,,N,2,2
36,가로공원로 지하공영주차장,06,서울특별시 강서구 가로공원로 189,37.5372628,126.8383789,50,단독,11,,,N,3,3
37,곰달래문화복지센터 공영주차장,06,서울특별시 강서구 강서로5길 50,37.5289561,126.8490887,50,단독,11,,,N,3,3
38,볏골공원 지하공영주차장,06,서울특별시 강서구 까치산로4길 22,37.5419747,126.8444499,50,단독,11,,,N,2,2
39,화곡6-1 공영주차장,06,서울특별시 강서구 우장산로 114,37.5530457,126.8488169,50,단독,11,,,N,2,2
40,홈플러스 강서점,06,서울특별시 강서구 화곡로 398,37.5591218,126.8549199,50,단독,11,,,N,9,9
41,신림동 제1공영주차장,06,서울특별시 관악구 관천로 98,37.4874046,126.9235075,50,단독,11,,,N,2,2
42,난곡동 제1공영주차장,06,서울특별시 관악구 난곡로34나길 14,37.4722977,126.9231169,50,단독,11,,,N,2,2
43,낙성대동주민센터,06,서울특별시 관악구 낙성대로4가길 5,37.476296,126.9583876,50,단독,11,,,Y,2,2
44,낙성대동주민센터,06,서울특별시 관악구 낙성대로4가길 5,37.476296,126.9583876,50,단독,11,,,Y,9,9
45,보라매 제1공영주차장,06,서울특별시 관악구 봉천로21길 38,37.488301,126.9346119,50,단독,11,,,N,3,3
46,보라매 제1공영주차장,06," 입구좌측, 지하 각 1기",37.488301,126.9346119,50,단독,11,,,N,9,9
47,원신 공영주차장,06,서울특별시 관악구 양지길 63,37.470038,126.9292421,50,단독,11,,,N,2,2
48,어린이대공원 후문주차장,06,서울특별시 광진구 능동로 216,37.5515067,127.0869275,50,단독,11,,,N,3,3
49,홈플러스 신도림점,06,서울특별시 구로구 경인로 661,37.5099693,126.888413,50,단독,11,,,N,2,2
50,롯데마트 중계점,06,서울특별시 노원구 노원로 330,37.6466673,127.0715514,50,단독,11,,,N,2,2
51,홈플러스 중계점,06,서울특별시 노원구 동일로204가길 12,37.6400856,127.0685413,50,단독,11,,,N,2,2
52,실증용 Mock-up 주택 홍보관,06,서울특별시 노원구 하계동 251-8,37.6381803,127.0737876,50,단독,11,,,N,3,3
53,실증용 Mock-up 주택 홍보관,06,서울특별시 노원구 하계동 251-8,37.6381803,127.0737876,50,단독,11,,,N,3,3
54,동대문구청,06,서울특별시 동대문구 천호대로 145,37.5746807,127.0401814,50,단독,11,,,N,2,2
55,중앙대학교병원 다정관 주차장,06,서울특별시 동작구 흑석로 102,37.5055471,126.9607195,50,단독,11,,,N,2,2
56,양화진공영주차장,06,서울특별시 마포구 토정로 2,37.5457992,126.9117265,50,단독,11,,,N,2,2
57,공덕1-1공영주차장,06, 옥상,37.5471234,126.9612454,50,단독,11,,,N,2,2
58,홍제견인차량보관소 주차장,06,서울특별시 서대문구 홍제내길 227,37.5905929,126.9407564,50,단독,11,,,N,2,2
59,홍제견인차량보관소 주차장,06,서울특별시 서대문구 홍제내길 227,37.5905929,126.9407564,50,단독,11,,,N,3,3
60,서울시인재개발원,06,서울특별시 서초구 남부순환로 340길 58,37.481369,127.0238502,50,단독,11,,,N,2,2
61,서울추모공원,06,서울특별시 서초구 양재대로12길 74,37.4536062,127.0428005,50,단독,11,,,N,2,2
62,아시아공원 공영주차장,06,서울특별시 송파구 잠실동 84,37.5102969,127.0788121,50,단독,11,,,N,2,2
63,아시아공원 공영주차장,06,서울특별시 송파구 잠실동 84,37.5102969,127.0788121,50,단독,11,,,N,2,2
64,아시아공원 공영주차장,06,서울특별시 송파구 잠실동 84,37.5102969,127.0788121,50,단독,11,,,N,2,2
65,롯데마트 송파점,06,서울특별시 송파구 중대로 80,37.4918392,127.1178931,50,단독,11,,,N,2,2
66,홈플러스 영등포점,06,서울특별시 영등포구 당산로 42,37.5190208,126.8957999,50,단독,11,,,N,2,2
67,신길6동 공영노외주차장(구 신길 제5동 주민센터),06,서울특별시 영등포구 신길동 3203,37.502512989,126.9110497,50,단독,11,,,N,3,3
68,신길4동1마을공원 공영주차장,06,서울특별시 영등포구 신길로40길 5,37.507122,126.9116817,50,단독,11,,,N,2,2
69,당산에스에이치빌 아파트 앞,06,서울특별시 영등포구 영신로 183,37.524217,126.9019801,50,단독,11,,,N,3,3
70,영등포 제3공영,06,서울특별시 영등포구 영중로3길 7,37.5180087,126.9030865,50,단독,11,,,N,2,2
71,신창동 공영주차장,06,서울특별시 용산구 원효로35길 53,37.5353568,126.9552587,50,단독,11,,,N,2,2
72,한남동 공영주차장,06,서울특별시 용산구 이태원로 224-19,37.5349284,127.0002489,50,단독,11,,,N,2,2
73,현대자동차 수색대리점,06,서울특별시 은평구 수색로 342-1,37.5867665,126.8880299,50,단독,11,,,N,2,2
74,은평구민체육센터,06,서울특별시 은평구 진관1로 40,37.6310603,126.9246413,50,단독,11,,,N,2,2
75,태화빌딩,06,서울특별시 종로구 인사동5길 29,37.5718148,126.9850443,50,단독,11,,,N,2,2
76,한국예술종합학교(종로),06,서울특별시 종로구 창경궁로 215,37.5824318,126.9974047,50,단독,11,,,N,2,2
77,국립극장,06,서울특별시 중구 장충단로 59,37.5517908,127.0002167,50,단독,11,,,N,2,2
78,국립극장,06,서울특별시 중구 장충단로 59,37.5517908,127.0002167,50,단독,11,,,N,3,3
79,홈플러스 상봉점,06,서울특별시 중랑구 망우로 353,37.5983156,127.0905669,50,단독,11,,,N,2,2
80,홈플러스 신내점,06,서울특별시 중랑구 신내로 201,37.6159847,127.0939656,50,단독,11,,,N,2,2
81,용마폭포공원 공영주차장,06,서울특별시 중랑구 용마산로 250-12,37.5745068,127.089592,50,단독,11,,,N,2,2
82,서울만남휴게소(부산방향),06,서울특별시 서초구 양재대로12길 73-71 (원지동),37.4600218,127.0420378,50,단독,11,,,Y,2,2
83,서울만남휴게소(부산방향),06,서울특별시 서초구 양재대로12길 73-71 (원지동),37.4600218,127.0420378,50,단독,11,,,Y,3,3
84,파크하얏트서울호텔,06,서울특별시 강남구 테헤란로606,37.508834,127.064114,50,단독,11,,,Y,5,5
85,스위스그랜드호텔(구 그랜드힐튼호텔),06,서울특별시 서대문구 연희로 353,37.590003,126.934744,50,단독,11,,,Y,2,2
86,롯데 VIC마켓 금천점,06,null,37.470581,126.895698,50,단독,11,,,Y,2,2
87,롯데 VIC마켓 금천점,06,null,37.470581,126.895698,50,단독,11,,,Y,2,2
88,우리은행본점,06,서울특별시 중구 소공로 51번지,37.559534,126.981817,50,단독,11,,,Y,2,2
89,우리은행본점,06,서울특별시 중구 소공로 51번지,37.559534,126.981817,50,단독,11,,,Y,2,2
90,마곡레포츠센터 ,06,"서울특별시 강서구 양천로 251, 입구 우측",37.5728411,126.8323738,50,단독,11,,,Y,2,2
91,창2동 제4공영주차장,06,서울특별시 도봉구 창2동 582-22,37.6413031,127.0364035,50,단독,11,,,N,2,2
92,창3동 제1공영주차장,06,"서울특별시 도봉구 창3동 504-21, 좌측 안쪽",37.6332558,127.0412125,50,단독,11,,,N,3,3
93,창천공영주차장,06,"서울특별시 마포구 노고산동 33-1, B3 28",37.55493,126.9389738,50,단독,11,,,N,2,2
94,번동햇살 공영주차장,06,"서울특별시 강북구 오현로 21길 84, 옥상 주차장",37.6249449,127.0334805,50,단독,11,,,N,2,2
95,난향동 주민센터,06,서울특별시 관악구 난곡로 67,37.4616153,126.9189711,50,단독,11,,,Y,3,3
96,시흥제4동공영주차장,06,"서울특별시 금천구 독산로 36나길 21, B1 18",37.4589664,126.9084827,50,단독,11,,,N,2,2
97,쌍문3동 제2공영주차장,06,"서울특별시 도봉구 쌍문3동 315-62, 지하 1층 안쪽",37.6493531,127.0293841,50,단독,11,,,Y,2,2
98,스탠포드호텔코리아,06,"서울특별시 마포구 상암동 월드컵북로 58길 15, 지하4층 18",37.5823581,126.886648,50,단독,11,,,Y,2,2
99,국회도서관,06,"서울특별시 영등포구 의사당대로1, 국회도서관 앞",37.5300002,126.9169991,50,단독,11,,,Y,2,2
100,국회도서관,04,"서울특별시 영등포구 의사당대로1, 국회도서관 앞",37.5300002,126.9169991,100,동시,11,,,Y,2,2
101,국회도서관,04,"서울특별시 영등포구 의사당대로1, 국회도서관 앞",37.5300002,126.9169991,100,동시,11,,,Y,2,2
102,국회의원회관,06,"서울특별시 영등포구 의사당대로1, 국회의원회관 주차장 우측",37.5284644,126.9149198,50,단독,11,,,Y,2,2
103,국회의원회관,04,"서울특별시 영등포구 의사당대로1, 국회의원회관 주차장 우측",37.5284644,126.9149198,100,동시,11,,,Y,2,2
104,국회의원회관,04,"서울특별시 영등포구 의사당대로1, 국회의원회관 주차장 우측",37.5284644,126.9149198,100,동시,11,,,Y,2,2
105,노원에코센터,06,서울특별시 노원구 덕릉로 450,37.644779,127.059382,50,단독,11,,,Y,3,3
106,영등포구청 환승공영주차장,06,서울특별시 영등포구 양산로111,37.524521,126.895436,50,단독,11,,,N,2,2
107,서울의료원,06,서울특별시 중랑구 신내로 156,37.6128457,127.0993409,50,단독,11,,,Y,3,3
108,롯데 빅마켓,06,"서울특별시 영등포구 영중로 125, 지상주차장(외부 1F)",37.528123,126.904080,50,단독,11,,,Y,3,3
109,롯데 빅마켓,05,"서울특별시 영등포구 영중로 125, 지상주차장(외부 1F)",37.528123,126.904080,50,단독,11,,,Y,3,3
110,롯데 빅마켓,04,"서울특별시 영등포구 영중로 125, 지상주차장(외부 1F)",37.528123,126.904080,100,동시,11,,,Y,2,2
111,롯데 빅마켓,04,"서울특별시 영등포구 영중로 125, 지상주차장(외부 1F)",37.528123,126.904080,100,동시,11,,,Y,2,2
112,롯데 빅마켓,04,"서울특별시 영등포구 영중로 125, 지상주차장(외부 1F)",37.528123,126.904080,100,동시,11,,,Y,2,2
113,롯데 빅마켓,04,"서울특별시 영등포구 영중로 125, 지상주차장(외부 1F)",37.528123,126.904080,100,동시,11,,,Y,2,2
114,성애병원,06,서울특별시 영등포구 여의대방로 53길 22,37.51202,126.92238,100,단독,11,,,N,3,3
115,냉천길 공영주차장,06,서울특별시 강북구 삼양로 230-12,37.62393,127.01953,100,단독,11,,,N,2,2
116,미아동 공영주차장,06,서울특별시 강북구 도봉로 61길 46,37.62851,127.02233,100,단독,11,,,N,2,2
117,수유마을시장 공영주차장,06,서울특별시 강북구 도봉로 69길 29,37.62047,127.02679,100,단독,11,,,N,2,2
118,개봉1동 주민센터 옆 공영주차장,06,서울특별시 구로구 개봉동 134-8,37.50016,126.85106,100,단독,11,,,N,3,3
119,하늘공원주차장,06,서울특별시 구로구 벚꽃로 370 ,37.48739,126.88051,100,단독,11,,,N,3,3
120,쌍문2동 제3공영주차장,06,서울특별시 도봉구 쌍문2동 710-4,37.66116,127.03864,100,단독,11,,,Y,2,2
121,서초구청,06,서울특별시 서초구 남부순환로 2584,37.48358,127.03269,100,단독,11,,,N,2,2
122,북한산국립공원 정릉탐방지원센터,06,서울특별시 성북구 정릉동 829-1,37.61846,126.99690,100,단독,11,,,N,2,2
123,북한산국립공원주차장,06,서울특별시 은평구 진관동 278,37.65584,126.94885,100,단독,11,,,N,2,2
124,부암동 주민센터,06,서울특별시 종로구 창의문로 145,37.59246,126.96412,100,단독,11,,,Y,9,9
125,SETEC,06,서울특별시 강남구 남부순환로3104,37.49584,127.07223,100,단독,11,,,N,2,2
126,논현로22길 공영주차장,06,서울특별시 강남구 개포로 25길 32,37.48151,127.04851,100,단독,11,,,N,2,2
127,대청역 공영주차장,06,서울특별시 강남구 개포동 13-2,37.49491,127.07928,100,단독,11,,,N,3,3
128,압구정로29길 공영노상주차장,06,서울특별시 강남구 압구정동 453,37.52968,127.02782,100,단독,11,,,N,2,2
129,가오리 공영주차장,06,서울특별시 강북구 삼양로107길 30,37.64152,127.01495,100,단독,11,,,N,2,2
130,가양레포츠센터,06,서울특별시 강서구 양천로61길 101,37.56198,126.86373,100,단독,11,,,Y,2,2
131,강서구민올림픽체육센터,06,null,37.55962,126.85057,100,단독,11,,,Y,2,2
132,상계2동 공영주차장,06,서울특별시 노원구 상계2동 373-13,37.65668,127.06751,100,단독,11,,,Y,2,2
133,DMC 산학협력연구센터,06,서울특별시 마포구 매봉산로 37,37.57600,126.89053,100,단독,11,,,N,2,2
134,마천동2공영주차장,06,서울특별시 송파구 성내천로299-7,37.49427,127.15624,100,단독,11,,,Y,2,2
135,거여동공영주차장,06,서울특별시 송파구 오금로68길8,37.49223,127.15033,100,단독,11,,,Y,2,2
136,천마공영주차장,06,서울특별시 송파구 성내천로33가길20,37.50028,127.15482,100,단독,11,,,Y,3,3
137,이태원2동공영주차장,06,서울특별시 용산구 회나무로 55？ ,37.54034,126.99267,100,단독,11,,,N,2,2
138,이마트 은평점,06,null,37.60077,126.92049,100,단독,11,,,Y,2,2
139,신월5동 주민센터,06,서울특별시 양천구 화곡로4길 10,37.53852,126.82716,100,단독,11,,,Y,3,3
140,신정1동 주민센터,06,서울특별시 양천구 중앙로 32길 1,37.51855,126.85429,100,단독,11,,,Y,2,2
141,목2동 주민센터,06,서울특별시 양천구 목동 중앙본로 120,37.54610,126.87168,100,단독,11,,,Y,2,2
142,송정동 공영주차장,06,서울특별시 성동구 동일로 199,37.54988,127.06804,100,단독,11,,,N,2,2
143,sh서울주택도시공사,04,서울특별시 강남구 개포로 621,37.49414,127.07879,200,동시,11,,,Y,2,2
144,sh서울주택도시공사,04,서울특별시 강남구 개포로 621,37.49414,127.07879,200,동시,11,,,Y,2,2
145,강동구청,04,서울특별시 강동구 성내로 25,37.53025,127.12379,200,동시,11,,,N,3,3
146,강동구청,04,서울특별시 강동구 성내로 25,37.53025,127.12379,200,동시,11,,,N,3,3
147,홈플러스 금천점,04,서울특별시 금천구 시흥대로 391,37.46864,126.89681,200,동시,11,,,Y,2,2
148,홈플러스 금천점,04,서울특별시 금천구 시흥대로 391,37.46864,126.89681,200,동시,11,,,Y,2,2
149,도봉산환승주차장,04,서울특별시 도봉구 도봉동 341-1,37.69000,127.04325,200,동시,11,,,N,2,2
150,도봉산환승주차장,04,서울특별시 도봉구 도봉동 341-1,37.69000,127.04325,200,동시,11,,,N,2,2
151,도봉구청,04,서울특별시 도봉구 마들로 656,37.66862,127.04704,200,동시,11,,,Y,2,2
152,도봉구청,04,서울특별시 도봉구 마들로 656,37.66862,127.04704,200,동시,11,,,Y,3,3
153,마장축산물시장 서문 공영주차장,04,서울특별시 성동구 고산자로 26길 6,37.57041,127.03833,200,동시,11,,,N,2,2
154,마장축산물시장 서문 공영주차장,04,서울특별시 성동구 고산자로 26길 6,37.57041,127.03833,200,동시,11,,,N,2,2
155,서울약령시 공영주차장,04,서울특별시 동대문구 약령중앙로 26,37.58051,127.03715,200,동시,11,,,N,2,2
156,서울약령시 공영주차장,04,서울특별시 동대문구 약령중앙로 26,37.58051,127.03715,200,동시,11,,,N,2,2
157,롯데마트 서울양평점,06,서울특별시 영등포구 선유로 138,37.52604,126.89173,100,단독,11,,,Y,2,2
158,롯데마트 서울양평점,06,서울특별시 영등포구 선유로 138,37.52604,126.89173,100,단독,11,,,Y,2,2
159,도봉기적의도서관,06,서울특별시 도봉구 마들로 797,37.68090660,127.05034377,100,단독,11,,,Y,2,2
160,도봉기적의도서관,06,서울특별시 도봉구 마들로 797,37.68090660,127.05034377,100,단독,11,,,Y,3,3
161,구파발광역환승센터 주차장,04,지상 3층,37.637968,126.91937,200,동시,11,,,N,3,3
162,구파발광역환승센터 주차장,04,지상 3층,37.637968,126.91937,200,동시,11,,,N,2,2
163,서울역사박물관,04,서울특별시 종로구 새문안로 55,37.57005,126.97053,200,동시,11,,,N,2,2
164,서울역사박물관,04,서울특별시 종로구 새문안로 55,37.57005,126.97053,200,동시,11,,,N,2,2
165,신정3동 넓은들 민원센터,04,서울특별시 양천구 남부순환로 88길 5-7,37.51130,126.84145,200,동시,11,,,Y,2,2
166,신정3동 넓은들 민원센터,04,서울특별시 양천구 남부순환로 88길 5-7,37.51130,126.84145,200,동시,11,,,Y,3,3
167,용답동 공영주차장,04,서울특별시 성동구 용답동 4-1,37.56452,127.05429,200,동시,11,,,Y,3,3
168,용답동 공영주차장,04,서울특별시 성동구 용답동 4-1,37.56452,127.05429,200,동시,11,,,Y,2,2
169,마포공영주차장,04,서울특별시 마포구 마포대로1길 9,37.53853862,126.94344032,100,단독,11,,,N,3,3
170,마포공영주차장,04,서울특별시 마포구 마포대로1길 9,37.53853862,126.94344032,100,단독,11,,,N,9,9
171,마포공영주차장,04,서울특별시 마포구 마포대로1길 9,37.53853862,126.94344032,100,단독,11,,,N,2,2
172,마포공영주차장,04,서울특별시 마포구 마포대로1길 9,37.53853862,126.94344032,100,단독,11,,,N,2,2
173,롯데백화점 본점,04,서울특별시 중구 을지로 30,37.56499,126.98136,200,동시,11,,,N,3,3
174,롯데백화점 본점,04,서울특별시 중구 을지로 30,37.56499,126.98136,200,동시,11,,,N,2,2
175,롯데백화점 본점,04,서울특별시 중구 을지로 30,37.56499,126.98136,200,동시,11,,,N,2,2
176,롯데백화점 본점,04,서울특별시 중구 을지로 30,37.56499,126.98136,200,동시,11,,,N,2,2
177,성수2가 공영주차장,04,서울특별시 성동구 광나루로4가길 23,37.54909,127.05516,100,단독,11,,,N,9,9
178,성수2가 공영주차장,04,서울특별시 성동구 광나루로4가길 23,37.54909,127.05516,100,단독,11,,,N,9,9
179,성수2가 공영주차장,04,서울특별시 성동구 광나루로4가길 23,37.54909,127.05516,100,단독,11,,,N,3,3
180,성수2가 공영주차장,04,서울특별시 성동구 광나루로4가길 23,37.54909,127.05516,100,단독,11,,,N,3,3
181,충현동 제1공영주차장,04,서울특별시 서대문구 충정로2가 78-13,37.5646084,126.964361,100,단독,11,,,N,2,2
182,남가좌2동 공영주차장,04,서울특별시 서대문구 남가좌2동 3-75,37.583014499999,126.9231095,100,단독,11,,,N,2,2
183,미도아파트 앞 공영주차장,04,서울특별시 서초구 반포동 49-8,37.499812075338,127.010502727,100,단독,11,,,N,2,2
184,올림픽공원,04,서울특별시 송파구 올림픽로 424 ,37.5171577,127.115847,100,단독,11,,,N,3,3
185,구민회관,04,서울특별시 송파구 백제고분로 242,37.502451999999,127.093104199,100,단독,11,,,N,2,2
186,문화회관동측 주차장,04,서울특별시 양천구 신정6동 322-5,37.516768299999,126.863562699,100,단독,11,,,N,2,2
187,곰달래공영주차장,04,서울특별시 양천구 곰달래로10길 4,37.5295552,126.83577059999,100,단독,11,,,N,2,2
188,다락골공영주차장,04,서울특별시 양천구 중앙로29길 41,37.5163711,126.8492558,100,단독,11,,,N,2,2
189,일원2동 주민센터,04,서울특별시 강남구 개포로 607,37.4919959,127.0738859,100,단독,11,,,Y,3,3
190,목4동주민센터,04,서울특별시 양천구 목동중앙로 25 ,37.5324277,126.8686162,100,단독,11,,,Y,2,2
191,한국장애인개발원 본사,04,서울특별시 영등포구 의사당대로 22,37.5269301,126.91793819999,100,단독,11,,,N,2,2
192,영등포본동제1(공영주차장),04,서울특별시 영등포구 영신로 10길 15,37.514279899999,126.9093244,100,단독,11,,,N,2,2
193,마포중앙도서관,04,서울특별시 마포구 성산로 128,37.563642399999,126.908286399,100,단독,11,,,N,3,2
194,강남구청 삼성로 별관 부설 주차장,04,서울특별시 강남구 삼성로 628,37.516178906156,127.052003282,100,단독,11,,,N,2,2
195,국방부 서문 주차장,04,서울특별시 용산구 한강대로 62다길 42,37.5331513,126.975461,100,단독,11,,,Y,2,2
196,일원본동 주민센터,04,서울특별시 강남구 광평로 126,37.483375399999,127.086393199,100,단독,11,,,Y,2,2
197,탄천물재생센터,04,서울특별시 강남구 개포로 625,37.4959067,127.0799979,200,동시,11,,,N,3,3
198,탄천물재생센터,04,서울특별시 강남구 개포로 625,37.4959067,127.0799979,200,동시,11,,,N,2,2
199,한국원자력의학원 본사,04,서울특별시 노원구 노원로75,37.628190798088,127.083195864,200,동시,11,,,N,2,2
200,한국원자력의학원 본사,04,서울특별시 노원구 노원로75,37.628190798088,127.083195864,200,동시,11,,,N,2,2
201,상암1 공영주차장,04,서울특별시 마포구 성암로 197,37.577011200000,126.8973596,200,동시,11,,,N,9,9
202,상암1 공영주차장,04,서울특별시 마포구 성암로 197,37.577011200000,126.8973596,200,동시,11,,,N,2,2
203,Park M (주차복합빌딩),04,서울특별시 마포구 매봉산로 80,37.57852958,126.89428612,200,동시,11,,,N,9,9
204,Park M (주차복합빌딩),04,서울특별시 마포구 매봉산로 80,37.57852958,126.89428612,200,동시,11,,,N,9,9
205,시민의숲동측 공영주차장2,04,서울특별시 서초구 양재동 237,37.471742268,127.0382062,200,동시,11,,,N,9,9
206,시민의숲동측 공영주차장2,04,서울특별시 서초구 양재동 237,37.471742268,127.0382062,200,동시,11,,,N,2,2
207,시민의숲동측 공영주차장,04,서울특별시 서초구 양재동 237,37.471742268304,127.038053030,200,동시,11,,,N,3,3
208,시민의숲동측 공영주차장,04,서울특별시 서초구 양재동 237,37.471742268304,127.038053030,200,동시,11,,,N,9,9
209,성수 2가1동 공영주차장,04,서울특별시 성동구 성덕정길 115,37.5370292,127.0563866,200,동시,11,,,N,9,9
210,성수 2가1동 공영주차장,04,서울특별시 성동구 성덕정길 115,37.5370292,127.0563866,200,동시,11,,,N,3,3
211,하왕십리 공영주차장,04,서울특별시 성동구 무학봉15길 48,37.5602689,127.0278376,200,동시,11,,,N,9,9
212,하왕십리 공영주차장,04,서울특별시 성동구 무학봉15길 48,37.5602689,127.0278376,200,동시,11,,,N,2,2
213,강변 공영주차장,04,서울특별시 성동구 둘레길 47-5,37.5369369,127.0491411,200,동시,11,,,N,9,9
214,강변 공영주차장,04,서울특별시 성동구 둘레길 47-5,37.5369369,127.0491411,200,동시,11,,,N,9,9
215,응봉동 공영주차장,04,서울특별시 성동구 독서당로63길 40,37.5544151,127.03102999999,200,동시,11,,,N,9,9
216,응봉동 공영주차장,04,서울특별시 성동구 독서당로63길 40,37.5544151,127.03102999999,200,동시,11,,,N,9,9
217,해누리타운,04,서울특별시 양천구 목동동로81,37.5160286,126.8639009,200,동시,11,,,N,9,9
218,해누리타운,04,서울특별시 양천구 목동동로81,37.5160286,126.8639009,200,동시,11,,,N,9,9
219,예금보험공사,04,서울특별시 중구 청계천로 30,37.568494701606,126.980793568,200,동시,11,,,N,9,9
220,예금보험공사,04,서울특별시 중구 청계천로 30,37.568494701606,126.980793568,200,동시,11,,,N,2,2
221,양화진 공영주차장,04,서울특별시 마포구 토정로 2,37.545502369555,126.911413488,200,동시,11,,,N,2,2
222,양화진 공영주차장,04,서울특별시 마포구 토정로 2,37.545502369555,126.911413488,200,동시,11,,,N,9,9
223,롯데마트 은평점,04,서울특별시 은평구 통일로 1050,37.6374578,126.9175874,200,동시,11,,,Y,3,3
224,롯데마트 은평점,04,서울특별시 은평구 통일로 1050,37.6374578,126.9175874,200,동시,11,,,Y,9,9
225,논현초교 공영노외주차장,04,서울특별시 강남구 강남대로120길 33,37.5082482,127.02676569999,200,동시,11,,,N,3,3
226,논현초교 공영노외주차장,04,서울특별시 강남구 강남대로120길 33,37.5082482,127.02676569999,200,동시,11,,,N,2,2
227,강남치매지원센터 공영노외주차장,04,서울특별시 강남구 선릉로108길 27,37.5100034,127.04605179999,200,동시,11,,,N,9,9
228,강남치매지원센터 공영노외주차장,04,서울특별시 강남구 선릉로108길 27,37.5100034,127.04605179999,200,동시,11,,,N,9,9
229,망원동 공영주차장1,04,서울특별시 마포구 동교로1길 39,37.55503247,126.89778505,200,동시,11,,,N,9,9
230,망원동 공영주차장1,04,서울특별시 마포구 동교로1길 39,37.55503247,126.89778505,200,동시,11,,,N,2,2
231,망원동 공영주차장1,04,서울특별시 마포구 동교로1길 39,37.55503247,126.89778505,200,동시,11,,,N,9,9
232,망원동 공영주차장1,04,서울특별시 마포구 동교로1길 39,37.55503247,126.89778505,200,동시,11,,,N,9,9
233,망원동 공영주차장1,04,서울특별시 마포구 동교로1길 39,37.55503247,126.89778505,200,동시,11,,,N,9,9
234,망원동 공영주차장1,04,서울특별시 마포구 동교로1길 39,37.55503247,126.89778505,200,동시,11,,,N,9,9
235,압구정 428 공영주차장1,04,서울특별시 강남구 압구정로 161,37.526628658353,127.0264263189,100,단독,11,,,N,2,2
236,압구정 428 공영주차장1,04,서울특별시 강남구 압구정로 161,37.526628658353,127.0264263189,100,단독,11,,,N,2,2
237,압구정 428 공영주차장1,04,서울특별시 강남구 압구정로 161,37.526628658353,127.0264263189,100,단독,11,,,N,2,2
238,압구정 428 공영주차장1,04,서울특별시 강남구 압구정로 161,37.526628658353,127.0264263189,100,단독,11,,,N,2,2
239,압구정 428 공영주차장1,04,서울특별시 강남구 압구정로 161,37.526628658353,127.0264263189,100,단독,11,,,N,2,2
240,압구정 428 공영주차장1,04,서울특별시 강남구 압구정로 161,37.526628658353,127.0264263189,100,단독,11,,,N,2,2
241,압구정 428 공영주차장1,04,서울특별시 강남구 압구정로 161,37.526628658353,127.0264263189,100,단독,11,,,N,2,2
242,압구정 428 공영주차장1,04,서울특별시 강남구 압구정로 161,37.526628658353,127.0264263189,100,단독,11,,,N,2,2
243,서울 해군회관,04,서울특별시 영등포구 가마산로 540,37.50421956,126.91605451,100,단독,11,,,N,2,2
244,서울올림픽공원 남2문주차장,04,서울특별시 송파구 올림픽로,37.514973,127.123837,100,단독,11,,,Y,3,3
245,서울올림픽공원 남2문주차장,04,서울특별시 송파구 올림픽로,37.514973,127.123837,100,단독,11,,,Y,2,2
246,서울올림픽공원 남2문주차장,04,서울특별시 송파구 올림픽로,37.514973,127.123837,100,단독,11,,,Y,3,3
247,서울올림픽공원 남2문주차장,04,서울특별시 송파구 올림픽로,37.514973,127.123837,100,단독,11,,,Y,2,2
248,서울올림픽공원 남2문주차장,04,서울특별시 송파구 올림픽로,37.514973,127.123837,100,단독,11,,,Y,2,2
249,롯데마트 중계점 야외주차장,04,서울특별시 노원구 노원로 ,37.646872,127.070993,100,단독,11,,,Y,2,2
250,롯데마트 중계점 야외주차장,04,서울특별시 노원구 노원로 ,37.646872,127.070993,100,단독,11,,,Y,2,2
251,롯데마트 중계점 야외주차장,04,서울특별시 노원구 노원로 ,37.646872,127.070993,100,단독,11,,,Y,2,2
252,롯데마트 중계점 야외주차장,04,서울특별시 노원구 노원로 ,37.646872,127.070993,100,단독,11,,,Y,2,2
253,롯데마트 중계점 야외주차장,04,서울특별시 노원구 노원로 ,37.646872,127.070993,100,단독,11,,,Y,2,2
254,서울 농수산식품공사 강서지부,04,서울특별시 강서구 발산로 40,37.551206,126.817967,100,단독,11,,,Y,3,3
255,서울 농수산식품공사 강서지부,04,서울특별시 강서구 발산로 40,37.551206,126.817967,100,단독,11,,,Y,3,3
256,가락시장,04,null,37.494161,127.113843,100,단독,11,,,N,2,2
257,가락시장,04,null,37.494161,127.113843,100,단독,11,,,N,2,2
258,가락시장,04,null,37.494161,127.113843,100,단독,11,,,N,9,9
259,가락시장,04,null,37.494161,127.113843,100,단독,11,,,N,9,9
260,가락시장,04,null,37.494161,127.113843,100,단독,11,,,N,2,2
261,가락시장,04,null,37.494161,127.113843,100,단독,11,,,N,2,2
262,포이초교 공영노외주차장,04,서울특별시 강남구 개포동 1273,37.475064,127.051703,100,단독,11,,,N,2,2
263,언주초교 공영노외주차장,04,서울특별시 강남구 도곡동 922,37.486856,127.037584,100,단독,11,,,N,2,2
264,강남스포츠문화센터,04,서울특별시 강남구 수서동 718,37.48871435,127.10522824,100,단독,11,,,Y,2,2
265,압구정로29길 노상주차장,04,서울특별시 강남구 압구정동 453,37.531468,127.027407,100,단독,11,,,N,2,2
266,길동복합청사,04,서울특별시 강동구 천호대로 1183,37.5345623,127.1426858,100,단독,11,,,Y,2,2
267,오동골프클럽,04,서울특별시 강북구 오현로 117,37.623253,127.037312,100,단독,11,,,N,2,2
268,노원문화원,04,서울특별시 노원구 동일로197길 24,37.628789,127.070204,100,단독,11,,,Y,2,2
269,반포4동주민센터 공영주차장,04,서울특별시 서초구 사평대로28길 70,37.496299,127.002285,100,단독,11,,,N,2,2
270,방배1동 공영주차장,04,서울특별시 서초구 방배로23길 31-6,37.485166,126.992489,100,단독,11,,,N,2,2
271,무궁화 공영주차장,04,서울특별시 서초구 서초대로54길 45,37.492899,127.01638,100,단독,11,,,N,2,2
272,청계산근린광장 공영주차장,04,서울특별시 서초구 원지동 361-1,37.446130,127.056479,100,단독,11,,,N,2,2
273,양재근린공원 공영주차장,04,서울특별시 서초구 동산로 35,37.475064,127.051703,100,단독,11,,,N,9,9
274,영등포본동제2공영주차장,04,서울특별시 영등포구 신길로60길 34,37.513514,126.9139,100,단독,11,,,Y,2,2
275,한국상하수도협회,04,서울특별시 영등포구 대림로 244,37.502455,126.897106,100,단독,11,,,Y,3,3
276,면목2동공영주차장,04,서울특별시 중랑구 겸재로23길 27,37.58793511,127.0808933,100,단독,11,,,Y,3,3
277,중화제1공영주차장,04,서울특별시 중랑구 중화동 73-5,37.59871,127.072706,100,단독,11,,,N,2,2
278,중화제4공영주차장,04,서울특별시 중랑구 중화동 73-10,37.595670,127.079469,100,단독,11,,,N,2,2
279,중랑역제1공영주차장,04,서울특별시 중랑구 중화동 73-6,37.595325,127.077539,100,단독,11,,,Y,3,3
280,광진문화예술회관,04,서울특별시 광진구 능동로 76,37.5375337,127.0705319,200,동시,11,,,N,2,2
281,광진문화예술회관,04,서울특별시 광진구 능동로 76,37.5375337,127.0705319,200,동시,11,,,N,2,2
282,한국과학기술원 서울캠퍼스,04,서울특별시 동대문구 회기로 85,37.5921192,127.0473764,200,동시,11,,,Y,3,3
283,한국과학기술원 서울캠퍼스,04,서울특별시 동대문구 회기로 85,37.5921192,127.0473764,200,동시,11,,,Y,3,3
284,서울시설공단,04,서울특별시 성동구 청계천로 540,37.571579,127.036101,100,단독,11,,,N,2,2
285,서울시설공단,04,서울특별시 성동구 청계천로 540,37.571579,127.036101,100,단독,11,,,N,2,2
286,현대백화점 목동점,04,서울특별시 양천구 목동동로 257,37.526755,126.875324,100,단독,11,,,N,2,2
287,현대백화점 목동점,04,서울특별시 양천구 목동동로 257,37.526755,126.875324,200,동시,11,,,N,2,3
288,현대백화점 목동점,04,서울특별시 양천구 목동동로 257,37.526755,126.875324,200,동시,11,,,N,2,2
289,마포구청,04,서울특별시 마포구 월드컵로 212,37.567121,126.9017038,200,동시,11,,,N,3,3
290,마포구청,04,서울특별시 마포구 월드컵로 212,37.567121,126.9017038,200,동시,11,,,N,2,2
291,마포구청,04,서울특별시 마포구 월드컵로 212,37.567121,126.9017038,200,동시,11,,,N,3,3
292,마포구청,04,서울특별시 마포구 월드컵로 212,37.567121,126.9017038,200,동시,11,,,N,2,2
293,국회 서편 주차장,04,서울특별시 영등포구 여의도동 1,37.5318027,126.9127433,100,단독,11,,,Y,2,2
294,국회 서편 주차장,04,서울특별시 영등포구 여의도동 1,37.5318027,126.9127433,100,단독,11,,,Y,2,2
295,국회 서편 주차장,04,서울특별시 영등포구 여의도동 1,37.5318027,126.9127433,100,단독,11,,,Y,2,2
296,국회 서편 주차장,04,서울특별시 영등포구 여의도동 1,37.5318027,126.9127433,100,단독,11,,,Y,3,3
297,국회 헌정기념관 주차장,04,서울특별시 영등포구 여의도동 1,37.53175,126.919483,100,단독,11,,,Y,2,2
298,국회 헌정기념관 주차장,04,서울특별시 영등포구 여의도동 1,37.53175,126.919483,100,단독,11,,,Y,2,2
299,국회 헌정기념관 주차장,04,서울특별시 영등포구 여의도동 1,37.53175,126.919483,100,단독,11,,,Y,2,2
300,국회 헌정기념관 주차장,04,서울특별시 영등포구 여의도동 1,37.53175,126.919483,100,단독,11,,,Y,2,2
301,답십리1동 주민센터,04,서울특별시 동대문구 사가정로 30,37.571706,127.051358,200,동시,11,,,Y,2,2
302,답십리1동 주민센터,04,서울특별시 동대문구 사가정로 30,37.571706,127.051358,200,동시,11,,,Y,2,2
303,서울강서경찰서,04,서울특별시 강서구 화곡로 308,37.5513434,126.8494797,200,동시,11,,,Y,2,2
304,서울강서경찰서,04,서울특별시 강서구 화곡로 308,37.5513434,126.8494797,200,동시,11,,,Y,3,3
305,은평구 갈현노인복지관,02,서울특별시 은평구 통일로89길 12-6,37.6248739,126.918642,7,단독,11,,,Y,2,2
306,한국자산관리공사 양재타워,04,서울특별시 강남구 강남대로 262,37.486924,127.033447,100,동시,11,,,Y,2,2
307,한국자산관리공사 양재타워,04,서울특별시 강남구 강남대로 262,37.486924,127.033447,100,동시,11,,,Y,2,2
308,한국자산관리공사 양재타워,04,서울특별시 강남구 강남대로 262,37.486924,127.033447,100,동시,11,,,Y,9,9
309,한국자산관리공사 양재타워,04,서울특별시 강남구 강남대로 262,37.486924,127.033447,100,동시,11,,,Y,9,9
310,강서구 등촌2-1공영주차장,04,서울특별시 강서구 등촌로55길 33-16,37.550236,126.862016,50,단독,11,,,Y,1,1
311,강서구 등촌2-1공영주차장,04,서울특별시 강서구 등촌로55길 33-16,37.550236,126.862016,50,단독,11,,,Y,1,1
312,강서구 등촌2-1공영주차장,04,서울특별시 강서구 등촌로55길 33-16,37.550236,126.862016,50,단독,11,,,Y,1,1
313,방화동 승윤노블리안아파트,02,서울특별시 강서구 방화대로40길 37,37.5710759,126.8187764,7,단독,11,,,Y,9,9
314,방화동 승윤노블리안아파트,02,서울특별시 강서구 방화대로40길 37,37.5710759,126.8187764,7,단독,11,,,Y,9,9
315,생각공장 데시앙플렉스(성수동),04,서울특별시 성동구 아차산로17길 49,37.539479152,127.08428712,100,동시,11,,,N,2,2
316,생각공장 데시앙플렉스(성수동),04,서울특별시 성동구 아차산로17길 49,37.539479152,127.08428712,100,동시,11,,,N,2,2
317,한국과학기술원 도곡캠퍼스,04,서울특별시 강남구 논현로28길 25,37.483542,127.044011,100,동시,11,,,Y,2,2
318,한국과학기술원 도곡캠퍼스,04,서울특별시 강남구 논현로28길 25,37.483542,127.044011,100,동시,11,,,Y,2,2
319,KBS 별관 주차장,04,서울특별시 영등포구 여의대방로 359,37.518587,126.929428,50,동시,11,,,Y,1,1
320,KBS 별관 주차장,04,서울특별시 영등포구 여의대방로 359,37.518587,126.929428,50,동시,11,,,Y,1,1
321,KBS 별관 주차장,04,서울특별시 영등포구 여의대방로 359,37.518587,126.929428,50,동시,11,,,Y,1,1
322,KBS 별관 주차장,04,서울특별시 영등포구 여의대방로 359,37.518587,126.929428,50,동시,11,,,Y,1,1
323,현대리버빌,02,서울특별시 광진구 아차산로78가길 17,37.549314,127.109640,7,단독,11,,,Y,9,9
324,한국수출입은행,02,서울특별시 영등포구 은행로 38,37.528570,126.923396,7,단독,11,,,N,9,9
325,한국수출입은행,02,서울특별시 영등포구 은행로 38,37.528570,126.923396,7,단독,11,,,N,9,9
326,한국수출입은행,02,서울특별시 영등포구 은행로 38,37.528570,126.923396,7,단독,11,,,N,9,9
327,한국수출입은행,02,서울특별시 영등포구 은행로 38,37.528570,126.923396,7,단독,11,,,N,9,9
328,스마트중앙건설,02,서울특별시 중랑구 망우로 236,37.594376,127.078760,7,단독,11,,,N,9,9
329,스마트중앙건설,02,서울특별시 중랑구 망우로 236,37.594376,127.078760,7,단독,11,,,N,9,9
330,스마트중앙건설,02,서울특별시 중랑구 망우로 236,37.594376,127.078760,7,단독,11,,,N,9,9
331,스마트중앙건설,02,서울특별시 중랑구 망우로 236,37.594376,127.078760,7,단독,11,,,N,9,9
332,신일아르디세,02,서울특별시 영등포구 선유로17길 24,37.521086,126.88698,,,11,,,Y,2,2
333,역삼SK리더스뷰,02,서울특별시 강남구 봉은사로 302,37.5086636,127.0394281,7,단독,11,,,Y,2,2
334,역삼SK리더스뷰,02,서울특별시 강남구 봉은사로 302,37.5086636,127.0394281,7,단독,11,,,Y,2,2
335,역삼SK리더스뷰,02,서울특별시 강남구 봉은사로 302,37.5086636,127.0394281,7,단독,11,,,Y,2,2
336,화온건설,02,서울특별시 구로구 오리로22나길 30,37.500397,126.830558,7,단독,11,,,N,9,9
337,화온건설,02,서울특별시 구로구 오리로22나길 30,37.500397,126.830558,7,단독,11,,,N,9,9
338,E편한세상서울대1단지,02,서울특별시 관악구 청룡10길 45,37.478396,126.943047,7,단독,11,,,N,9,9
339,E편한세상서울대1단지,02,서울특별시 관악구 청룡10길 45,37.478396,126.943047,7,단독,11,,,N,3,3
340,E편한세상서울대1단지,02,서울특별시 관악구 청룡10길 45,37.478396,126.943047,7,단독,11,,,N,3,3
341,E편한세상서울대1단지,02,서울특별시 관악구 청룡10길 45,37.478396,126.943047,7,단독,11,,,N,2,2
342,E편한세상서울대2단지,02,서울특별시 관악구 청룡16길 43,37.476938,126.943054,7,단독,11,,,N,2,2
343,E편한세상서울대2단지,02,서울특별시 관악구 청룡16길 43,37.476938,126.943054,7,단독,11,,,N,3,3
344,E편한세상서울대2단지,02,서울특별시 관악구 청룡16길 43,37.476938,126.943054,7,단독,11,,,N,3,3
345,한성건설,02,서울특별시 양천구 오목로11길 19,37.524360,126.844295,7,단독,11,,,N,9,9
346,태혁종합건설,02,서울특별시 중랑구 양원역로8길 25,37.605190,127.108237,7,단독,11,,,N,9,9
347,양천문화회관,02,서울특별시 양천구 목동서로 367,37.5166513,126.8633139,,,11,,,N,9,9
348,양천문화회관,02,서울특별시 양천구 목동서로 367,37.5166513,126.8633139,,,11,,,N,9,9
349,양천문화회관,02,서울특별시 양천구 목동서로 367,37.5166513,126.8633139,,단독,11,,,N,9,9
350,양천문화회관,02,서울특별시 양천구 목동서로 367,37.5166513,126.8633139,,단독,11,,,N,9,9
351,양천문화회관,02,서울특별시 양천구 목동서로 367,37.5166513,126.8633139,,,11,,,N,9,9
352,양천문화회관,02,서울특별시 양천구 목동서로 367,37.5166513,126.8633139,,,11,,,N,9,9
353,양천문화회관,02,서울특별시 양천구 목동서로 367,37.5166513,126.8633139,,단독,11,,,N,9,9
354,양천문화회관,02,서울특별시 양천구 목동서로 367,37.5166513,126.8633139,,,11,,,N,9,9
355,양천문화회관,02,서울특별시 양천구 목동서로 367,37.5166513,126.8633139,,,11,,,N,9,9
356,양천문화회관,02,서울특별시 양천구 목동서로 367,37.5166513,126.8633139,,,11,,,N,9,9
357,양천문화회관,02,서울특별시 양천구 목동서로 367,37.5166513,126.8633139,,,11,,,N,9,9
358,양천문화회관,02,서울특별시 양천구 목동서로 367,37.5166513,126.8633139,,,11,,,N,9,9
359,양천문화회관,02,서울특별시 양천구 목동서로 367,37.5166513,126.8633139,,,11,,,N,9,9
360,양천문화회관,02,서울특별시 양천구 목동서로 367,37.5166513,126.8633139,,,11,,,N,9,9
361,양천문화회관,02,서울특별시 양천구 목동서로 367,37.5166513,126.8633139,,,11,,,N,9,9
362,양천문화회관,02,서울특별시 양천구 목동서로 367,37.5166513,126.8633139,,,11,,,N,9,9
363,양천문화회관,02,서울특별시 양천구 목동서로 367,37.5166513,126.8633139,,,11,,,N,9,9
364,양천문화회관,02,서울특별시 양천구 목동서로 367,37.5166513,126.8633139,,,11,,,N,9,9
365,양천문화회관,02,서울특별시 양천구 목동서로 367,37.5166513,126.8633139,,,11,,,N,9,9
366,양천문화회관,02,서울특별시 양천구 목동서로 367,37.5166513,126.8633139,,,11,,,N,9,9
367,양천공원,02,서울특별시 양천구 목동서로 301-21,37.5190054,126.8685376,,,11,,,Y,9,9
368,양천공원,02,서울특별시 양천구 목동서로 301-21,37.5190054,126.8685376,,,11,,,Y,9,9
369,양천공원,02,서울특별시 양천구 목동서로 301-21,37.5190054,126.8685376,,,11,,,Y,9,9
370,양천공원,02,서울특별시 양천구 목동서로 301-21,37.5190054,126.8685376,,,11,,,Y,9,9
371,양천공원,02,서울특별시 양천구 목동서로 301-21,37.5190054,126.8685376,,,11,,,Y,9,9
372,양천공원,02,서울특별시 양천구 목동서로 301-21,37.5190054,126.8685376,,,11,,,Y,9,9
373,양천공원,02,서울특별시 양천구 목동서로 301-21,37.5190054,126.8685376,,,11,,,Y,9,9
374,양천공원,02,서울특별시 양천구 목동서로 301-21,37.5190054,126.8685376,,,11,,,Y,9,9
375,양천공원,02,서울특별시 양천구 목동서로 301-21,37.5190054,126.8685376,,,11,,,Y,9,9
376,양천공원,02,서울특별시 양천구 목동서로 301-21,37.5190054,126.8685376,,,11,,,Y,9,9
377,양천공원,02,서울특별시 양천구 목동서로 301-21,37.5190054,126.8685376,,,11,,,Y,9,9
378,양천공원,02,서울특별시 양천구 목동서로 301-21,37.5190054,126.8685376,,,11,,,Y,9,9
379,양천공원,02,서울특별시 양천구 목동서로 301-21,37.5190054,126.8685376,,,11,,,Y,9,9
380,양천공원,02,서울특별시 양천구 목동서로 301-21,37.5190054,126.8685376,,,11,,,Y,9,9
381,양천공원,02,서울특별시 양천구 목동서로 301-21,37.5190054,126.8685376,,,11,,,Y,9,9
382,양천공원,02,서울특별시 양천구 목동서로 301-21,37.5190054,126.8685376,,,11,,,Y,9,9
383,양천공원,02,서울특별시 양천구 목동서로 301-21,37.5190054,126.8685376,,,11,,,Y,9,9
384,양천공원,02,서울특별시 양천구 목동서로 301-21,37.5190054,126.8685376,,,11,,,Y,9,9
385,양천공원,02,서울특별시 양천구 목동서로 301-21,37.5190054,126.8685376,,,11,,,Y,9,9
386,양천공원,02,서울특별시 양천구 목동서로 301-21,37.5190054,126.8685376,,,11,,,Y,9,9
387,목운중학교,02,서울특별시 양천구 목동동로 235,37.5272338,126.8724588,,,11,,,N,9,9
388,목운중학교,02,서울특별시 양천구 목동동로 235,37.5272338,126.8724588,,,11,,,N,9,9
389,목운중학교,02,서울특별시 양천구 목동동로 235,37.5272338,126.8724588,,,11,,,N,9,9
390,목운중학교,02,서울특별시 양천구 목동동로 235,37.5272338,126.8724588,,,11,,,N,9,9
391,목운중학교,02,서울특별시 양천구 목동동로 235,37.5272338,126.8724588,,,11,,,N,9,9
392,목운중학교,02,서울특별시 양천구 목동동로 235,37.5272338,126.8724588,,,11,,,N,9,9
393,목운중학교,02,서울특별시 양천구 목동동로 235,37.5272338,126.8724588,,,11,,,N,9,9
394,목운중학교,02,서울특별시 양천구 목동동로 235,37.5272338,126.8724588,,,11,,,N,9,9
395,목운중학교,02,서울특별시 양천구 목동동로 235,37.5272338,126.8724588,,,11,,,N,9,9
396,목운중학교,02,서울특별시 양천구 목동동로 235,37.5272338,126.8724588,,,11,,,N,9,9
397,목운중학교,02,서울특별시 양천구 목동동로 235,37.5272338,126.8724588,,,11,,,N,9,9
398,목운중학교,02,서울특별시 양천구 목동동로 235,37.5272338,126.8724588,,,11,,,N,9,9
399,목운중학교,02,서울특별시 양천구 목동동로 235,37.5272338,126.8724588,,,11,,,N,9,9
400,목운중학교,02,서울특별시 양천구 목동동로 235,37.5272338,126.8724588,,,11,,,N,9,9
401,목운중학교,02,서울특별시 양천구 목동동로 235,37.5272338,126.8724588,,,11,,,N,9,9
402,목운중학교,02,서울특별시 양천구 목동동로 235,37.5272338,126.8724588,,,11,,,N,9,9
403,목운중학교,02,서울특별시 양천구 목동동로 235,37.5272338,126.8724588,,,11,,,N,9,9
404,목운중학교,02,서울특별시 양천구 목동동로 235,37.5272338,126.8724588,,,11,,,N,9,9
405,목운중학교,02,서울특별시 양천구 목동동로 235,37.5272338,126.8724588,,,11,,,N,9,9
406,목운중학교,02,서울특별시 양천구 목동동로 235,37.5272338,126.8724588,,,11,,,N,9,9
407,목운중학교,02,서울특별시 양천구 목동동로 235,37.5272338,126.8724588,,,11,,,N,9,9
408,목운중학교,02,서울특별시 양천구 목동동로 235,37.5272338,126.8724588,,,11,,,N,9,9
409,목운중학교,02,서울특별시 양천구 목동동로 235,37.5272338,126.8724588,,,11,,,N,9,9
410,목운중학교,02,서울특별시 양천구 목동동로 235,37.5272338,126.8724588,,,11,,,N,9,9
411,목운중학교,02,서울특별시 양천구 목동동로 235,37.5272338,126.8724588,,,11,,,N,9,9
412,목운중학교,02,서울특별시 양천구 목동동로 235,37.5272338,126.8724588,,,11,,,N,9,9
413,목운중학교,02,서울특별시 양천구 목동동로 235,37.5272338,126.8724588,,,11,,,N,9,9
414,목운중학교,02,서울특별시 양천구 목동동로 235,37.5272338,126.8724588,,,11,,,N,9,9
415,목동로데오,02,서울특별시 양천구 목동로25길 26,37.5283292,126.8612423,,,11,,,Y,9,9
416,목동로데오,02,서울특별시 양천구 목동로25길 26,37.5283292,126.8612423,,,11,,,Y,9,9
417,목동로데오,02,서울특별시 양천구 목동로25길 26,37.5283292,126.8612423,,,11,,,Y,9,9
418,목동로데오,02,서울특별시 양천구 목동로25길 26,37.5283292,126.8612423,,,11,,,Y,9,9
419,목동로데오,02,서울특별시 양천구 목동로25길 26,37.5283292,126.8612423,,,11,,,Y,9,9
420,목동로데오,02,서울특별시 양천구 목동로25길 26,37.5283292,126.8612423,,,11,,,Y,9,9
421,목동로데오,02,서울특별시 양천구 목동로25길 26,37.5283292,126.8612423,,,11,,,Y,9,9
422,목동로데오,02,서울특별시 양천구 목동로25길 26,37.5283292,126.8612423,,,11,,,Y,9,9
423,양천파리공원,02,서울특별시 양천구 목동동로 363,37.5338904,126.8761365,,,11,,,N,9,9
424,양천파리공원,02,서울특별시 양천구 목동동로 363,37.5338904,126.8761365,,,11,,,N,9,9
425,양천파리공원,02,서울특별시 양천구 목동동로 363,37.5338904,126.8761365,,,11,,,N,9,9
426,양천파리공원,02,서울특별시 양천구 목동동로 363,37.5338904,126.8761365,,,11,,,N,9,9
427,양천파리공원,02,서울특별시 양천구 목동동로 363,37.5338904,126.8761365,,,11,,,N,9,9
428,양천파리공원,02,서울특별시 양천구 목동동로 363,37.5338904,126.8761365,,,11,,,N,9,9
429,양천파리공원,02,서울특별시 양천구 목동동로 363,37.5338904,126.8761365,,,11,,,N,9,9
430,양천파리공원,02,서울특별시 양천구 목동동로 363,37.5338904,126.8761365,,,11,,,N,9,9
431,양천파리공원,02,서울특별시 양천구 목동동로 363,37.5338904,126.8761365,,,11,,,N,9,9
432,양천파리공원,02,서울특별시 양천구 목동동로 363,37.5338904,126.8761365,,,11,,,N,9,9
433,양천파리공원,02,서울특별시 양천구 목동동로 363,37.5338904,126.8761365,,,11,,,N,9,9
434,양천파리공원,02,서울특별시 양천구 목동동로 363,37.5338904,126.8761365,,,11,,,N,9,9
435,양천파리공원,02,서울특별시 양천구 목동동로 363,37.5338904,126.8761365,,,11,,,N,9,9
436,양천파리공원,02,서울특별시 양천구 목동동로 363,37.5338904,126.8761365,,,11,,,N,9,9
437,양천파리공원,02,서울특별시 양천구 목동동로 363,37.5338904,126.8761365,,,11,,,N,9,9
438,양천파리공원,02,서울특별시 양천구 목동동로 363,37.5338904,126.8761365,,,11,,,N,9,9
439,양천파리공원,02,서울특별시 양천구 목동동로 363,37.5338904,126.8761365,,,11,,,N,9,9
440,양천파리공원,02,서울특별시 양천구 목동동로 363,37.5338904,126.8761365,,,11,,,N,9,9
441,양천파리공원,02,서울특별시 양천구 목동동로 363,37.5338904,126.8761365,,,11,,,N,9,9
442,양천파리공원,02,서울특별시 양천구 목동동로 363,37.5338904,126.8761365,,,11,,,N,9,9
443,양천파리공원,02,서울특별시 양천구 목동동로 363,37.5338904,126.8761365,,,11,,,N,9,9
444,양천파리공원,02,서울특별시 양천구 목동동로 363,37.5338904,126.8761365,,,11,,,N,9,9
445,양천파리공원,02,서울특별시 양천구 목동동로 363,37.5338904,126.8761365,,,11,,,N,9,9
446,양천파리공원,02,서울특별시 양천구 목동동로 363,37.5338904,126.8761365,,,11,,,N,9,9
447,양천파리공원,02,서울특별시 양천구 목동동로 363,37.5338904,126.8761365,,,11,,,N,9,9
448,양천파리공원,02,서울특별시 양천구 목동동로 363,37.5338904,126.8761365,,,11,,,N,9,9
449,양천파리공원,02,서울특별시 양천구 목동동로 363,37.5338904,126.8761365,,,11,,,N,9,9
450,양천파리공원,02,서울특별시 양천구 목동동로 363,37.5338904,126.8761365,,,11,,,N,9,9
451,양천파리공원,02,서울특별시 양천구 목동동로 363,37.5338904,126.8761365,,,11,,,N,9,9
452,양천파리공원,02,서울특별시 양천구 목동동로 363,37.5338904,126.8761365,,,11,,,N,9,9
453,양천파리공원,02,서울특별시 양천구 목동동로 363,37.5338904,126.8761365,,,11,,,N,9,9
454,양천파리공원,02,서울특별시 양천구 목동동로 363,37.5338904,126.8761365,,,11,,,N,9,9
455,양천파리공원,02,서울특별시 양천구 목동동로 363,37.5338904,126.8761365,,,11,,,N,9,9
456,양천파리공원,02,서울특별시 양천구 목동동로 363,37.5338904,126.8761365,,,11,,,N,9,9
457,양천파리공원,02,서울특별시 양천구 목동동로 363,37.5338904,126.8761365,,,11,,,N,9,9
458,양천파리공원,02,서울특별시 양천구 목동동로 363,37.5338904,126.8761365,,,11,,,N,9,9
459,양천파리공원,02,서울특별시 양천구 목동동로 363,37.5338904,126.8761365,,,11,,,N,9,9
460,양천파리공원,02,서울특별시 양천구 목동동로 363,37.5338904,126.8761365,,,11,,,N,9,9
461,양천파리공원,02,서울특별시 양천구 목동동로 363,37.5338904,126.8761365,,,11,,,N,9,9
462,양천파리공원,02,서울특별시 양천구 목동동로 363,37.5338904,126.8761365,,,11,,,N,9,9
463,샤르망오피스텔,02,서울특별시 양천구 월정로 101,37.5284637,126.8390009,,,11,,,N,9,9
464,샤르망오피스텔,02,서울특별시 양천구 월정로 101,37.5284637,126.8390009,,,11,,,N,9,9
465,샤르망오피스텔,02,서울특별시 양천구 월정로 101,37.5284637,126.8390009,,,11,,,N,9,9
466,샤르망오피스텔,02,서울특별시 양천구 월정로 101,37.5284637,126.8390009,,,11,,,N,9,9
467,샤르망오피스텔,02,서울특별시 양천구 월정로 101,37.5284637,126.8390009,,,11,,,N,9,9
468,샤르망오피스텔,02,서울특별시 양천구 월정로 101,37.5284637,126.8390009,,,11,,,N,9,9
469,샤르망오피스텔,02,서울특별시 양천구 월정로 101,37.5284637,126.8390009,,,11,,,N,9,9
470,샤르망오피스텔,02,서울특별시 양천구 월정로 101,37.5284637,126.8390009,,,11,,,N,9,9
471,샤르망오피스텔,02,서울특별시 양천구 월정로 101,37.5284637,126.8390009,,,11,,,N,9,9
472,샤르망오피스텔,02,서울특별시 양천구 월정로 101,37.5284637,126.8390009,,,11,,,N,9,9
473,샤르망오피스텔,02,서울특별시 양천구 월정로 101,37.5284637,126.8390009,,,11,,,N,9,9
474,샤르망오피스텔,02,서울특별시 양천구 월정로 101,37.5284637,126.8390009,,,11,,,N,9,9
475,샤르망오피스텔,02,서울특별시 양천구 월정로 101,37.5284637,126.8390009,,,11,,,N,9,9
476,샤르망오피스텔,02,서울특별시 양천구 월정로 101,37.5284637,126.8390009,,,11,,,N,9,9
477,샤르망오피스텔,02,서울특별시 양천구 월정로 101,37.5284637,126.8390009,,,11,,,N,9,9
478,샤르망오피스텔,02,서울특별시 양천구 월정로 101,37.5284637,126.8390009,,,11,,,N,9,9
479,신월 스위트드림,02,서울특별시 양천구 곰달래로11길 56,37.5346227,126.8344875,,,11,,,N,9,9
480,신월 스위트드림,02,서울특별시 양천구 곰달래로11길 56,37.5346227,126.8344875,,,11,,,N,9,9
481,신월 스위트드림,02,서울특별시 양천구 곰달래로11길 56,37.5346227,126.8344875,,,11,,,N,9,9
482,신월 스위트드림,02,서울특별시 양천구 곰달래로11길 56,37.5346227,126.8344875,,,11,,,N,9,9
483,신월 스위트드림,02,서울특별시 양천구 곰달래로11길 56,37.5346227,126.8344875,,,11,,,N,9,9
484,신월 스위트드림,02,서울특별시 양천구 곰달래로11길 56,37.5346227,126.8344875,,,11,,,N,9,9
485,신월 스위트드림,02,서울특별시 양천구 곰달래로11길 56,37.5346227,126.8344875,,,11,,,N,9,9
486,신월 스위트드림,02,서울특별시 양천구 곰달래로11길 56,37.5346227,126.8344875,,,11,,,N,9,9
487,신월 스위트드림,02,서울특별시 양천구 곰달래로11길 56,37.5346227,126.8344875,,,11,,,N,9,9
488,신월 스위트드림,02,서울특별시 양천구 곰달래로11길 56,37.5346227,126.8344875,,,11,,,N,9,9
489,신월 스위트드림,02,서울특별시 양천구 곰달래로11길 56,37.5346227,126.8344875,,,11,,,N,9,9
490,신월 스위트드림,02,서울특별시 양천구 곰달래로11길 56,37.5346227,126.8344875,,,11,,,N,9,9
491,잠실앙시레이크타워,02,서울특별시 송파구 도곡로 450,37.5054499,127.0782769,7,단독,11,,,N,2,2
492,용산아스테리움(1주차장),02,서울특별시 용산구 한강대로30길 25,37.5274013,126.9688295,,,11,,,Y,2,2
493,용산아스테리움(1주차장),02,서울특별시 용산구 한강대로30길 25,37.5274013,126.9688295,,,11,,,Y,2,2
494,용산아스테리움(2주차장),02,서울특별시 용산구 한강대로30길 25,37.5274013,126.9688295,,,11,,,Y,2,2
495,수협중앙회,02,서울특별시 송파구 오금로 62,37.516223,127.105749,,,11,,,N,2,2
496,롯데캐슬골드(롯데쇼핑),02,서울특별시 송파구 올림픽로 269,37.514515,127.100584,,,11,,,N,2,2
497,롯데캐슬골드(롯데쇼핑),02,서울특별시 송파구 올림픽로 269,37.514515,127.100584,,,11,,,N,3,3
498,롯데캐슬골드(롯데쇼핑),02,서울특별시 송파구 올림픽로 269,37.514515,127.100584,,,11,,,N,2,2
499,롯데캐슬골드(롯데쇼핑),02,서울특별시 송파구 올림픽로 269,37.514515,127.100584,,,11,,,N,2,2
500,크로바타워,02,서울특별시 서초구 서초대로 347,37.495666,127.019258,,,11,,,Y,2,2
501,크로바타워,02,서울특별시 서초구 서초대로 347,37.495666,127.019258,,,11,,,Y,1,1
502,이스타빌,02,서울특별시 강남구 도곡로 225,37.4937143,127.0431144,,,11,,,N,2,2
503,이스타빌,02,서울특별시 강남구 도곡로 225,37.4937143,127.0431144,,,11,,,N,2,2
504,서울시 상수도사업본부,02,서울특별시 서대문구 서소문로 51,37.561949,126.966732,,단독,11,,,Y,2,2
505,서울시 상수도사업본부,02,서울특별시 서대문구 서소문로 51,37.561949,126.966732,,단독,11,,,Y,2,2
506,서울시립대학교(100주년 기념관 지하1층),06,서울특별시 동대문구 서울시립대로 163,37.584627999999,127.057001,,,11,,,N,2,2
507,서울시립대학교(100주년 기념관 지하1층),02,서울특별시 동대문구 서울시립대로 163,37.584627999999,127.057001,,,11,,,N,2,2
508,서울시립대학교(100주년 기념관 지하1층),02,서울특별시 동대문구 서울시립대로 163,37.584627999999,127.057001,,,11,,,N,3,3
509,서울시립대학교(100주년 기념관 지하1층),02,서울특별시 동대문구 서울시립대로 163,37.584627999999,127.057001,,,11,,,N,2,2
510,서울시립대학교(100주년 기념관 지하1층),02,서울특별시 동대문구 서울시립대로 163,37.584627999999,127.057001,,,11,,,N,2,2
511,서울시립대학교(100주년 기념관 지하1층),02,서울특별시 동대문구 서울시립대로 163,37.584627999999,127.057001,,,11,,,N,2,2
512,서울시립대학교(100주년 기념관 지하1층),02,서울특별시 동대문구 서울시립대로 163,37.584627999999,127.057001,,,11,,,N,2,2
513,서울시립대학교(100주년 기념관 지하1층),02,서울특별시 동대문구 서울시립대로 163,37.584627999999,127.057001,,,11,,,N,2,2
514,서울시립대학교(100주년 기념관 지하1층),02,서울특별시 동대문구 서울시립대로 163,37.584627999999,127.057001,,,11,,,N,3,3
515,서울시립대학교(100주년 기념관 지하1층),02,서울특별시 동대문구 서울시립대로 163,37.584627999999,127.057001,,,11,,,N,2,2
516,서울시립대학교(100주년 기념관 지하1층),02,서울특별시 동대문구 서울시립대로 163,37.584627999999,127.057001,,,11,,,N,2,2
517,서울시립대학교(100주년 기념관 지하1층),02,서울특별시 동대문구 서울시립대로 163,37.584627999999,127.057001,,,11,,,N,2,2
518,서울시립대학교(100주년 기념관 지하1층),02,서울특별시 동대문구 서울시립대로 163,37.584627999999,127.057001,,,11,,,N,2,2
519,한국전기안전공사 서울서부지사,02,서울특별시 영등포구 당산로33길 7,37.527059,126.895874,,,11,,,Y,2,2
520,한국전기안전공사 서울서부지사,02,서울특별시 영등포구 당산로33길 7,37.527059,126.895874,,,11,,,Y,2,2
521,한국전기안전공사 서울서부지사,02,서울특별시 영등포구 당산로33길 7,37.527059,126.895874,,,11,,,Y,2,2
522,한국전기안전공사 서울북부지사,02,서울특별시 도봉구 노해로67길 14,37.652291,127.049379,,,11,,,Y,2,2
523,코위버,02,서울특별시 강서구 마곡중앙8로7길 45,37.5764888,126.8307466,,,11,,,Y,2,2
524,코위버,02,서울특별시 강서구 마곡중앙8로7길 45,37.5764888,126.8307466,,,11,,,Y,2,2
525,코위버,02,서울특별시 강서구 마곡중앙8로7길 45,37.5764888,126.8307466,,,11,,,Y,2,2
526,서울도시시설기반본부,02,서울특별시 중구 청계천로 8,37.568787,126.9782122,,,11,,,Y,2,2
527,서울도시시설기반본부,02,서울특별시 중구 청계천로 8,37.568787,126.9782122,,,11,,,Y,2,2
528,서린빌딩(샬레코리아),02,서울특별시 영등포구 여의대방로65길 17,37.5197067,126.9292034,,,11,,,Y,2,2
529,서린빌딩(샬레코리아),02,서울특별시 영등포구 여의대방로65길 17,37.5197067,126.9292034,,,11,,,Y,2,2
530,용산아스테리움,02,서울특별시 용산구 한강대로30길 25,37.5274013,126.9688295,,,11,,,Y,2,2
531,용산아스테리움,02,서울특별시 용산구 한강대로30길 25,37.5274013,126.9688295,,,11,,,Y,2,2
532,용산아스테리움,02,서울특별시 용산구 한강대로30길 25,37.5274013,126.9688295,,,11,,,Y,2,2
533,용산아스테리움,02,서울특별시 용산구 한강대로30길 25,37.5274013,126.9688295,,,11,,,Y,2,2
534,아주빌딩(아주산업),02,서울특별시 강남구 테헤란로 201,37.501311,127.037178,,,11,,,N,2,2
535,아주빌딩(아주산업),02,서울특별시 강남구 테헤란로 201,37.501311,127.037178,,,11,,,N,2,2
536,한국국토정보공사 서울지역본부 논현,02,서울특별시 강남구 언주로 703,37.516043,127.034881,,단독,11,,,Y,2,2
537,한국국토정보공사 서울지역본부 논현,02,서울특별시 강남구 언주로 703,37.516043,127.034881,,,11,,,Y,2,2
538,시민생활사박물관,02,서울특별시 노원구 동일로174길 27,37.619857,127.076517,,,11,,,Y,2,2
539,시민생활사박물관,02,서울특별시 노원구 동일로174길 27,37.619857,127.076517,,,11,,,Y,2,2
540,시민생활사박물관,02,서울특별시 노원구 동일로174길 27,37.619857,127.076517,,,11,,,Y,2,2
541,시민생활사박물관,02,서울특별시 노원구 동일로174길 27,37.619857,127.076517,,,11,,,Y,2,2
542,서울기상청,06,서울특별시 동작구 여의대방로16길 61,37.494192,126.917608,,,11,,,Y,2,2
543,현우모터스,02,서울특별시 서초구 서초대로 139,37.489062,126.9973639,,,11,,,Y,2,2
544,한국국토정보공사 강남서초지사,02,서울특별시 강남구 봉은사로114길 30,37.513178,127.065386,,,11,,,Y,2,2
545,한국국토정보공사 강남서초지사,02,서울특별시 강남구 봉은사로114길 30,37.513178,127.065386,,,11,,,Y,2,2
546,한국국토정보공사 강남서초지사,02,서울특별시 강남구 봉은사로114길 30,37.513178,127.065386,,,11,,,Y,2,2
547,한국국토정보공사 서울중부지사,02,서울특별시 성북구 고려대로7다길 8,37.587772,127.020761,,,11,,,Y,2,2
548,한국국토정보공사 서울중부지사,02,서울특별시 성북구 고려대로7다길 8,37.587772,127.020761,,,11,,,Y,2,2
549,한국국토정보공사 서울중부지사,02,서울특별시 성북구 고려대로7다길 8,37.587772,127.020761,,,11,,,Y,2,2
550,한국국토정보공사 서울중부지사,02,서울특별시 성북구 고려대로7다길 8,37.587772,127.020761,,,11,,,Y,2,2
551,한국국토정보공사 용산마포지사,02,서울특별시 마포구 포은로 135,37.558844,126.9033439,,,11,,,Y,2,2
552,한국국토정보공사 용산마포지사,02,서울특별시 마포구 포은로 135,37.558844,126.9033439,,,11,,,Y,2,2
553,한국국토정보공사 용산마포지사,02,서울특별시 마포구 포은로 135,37.558844,126.9033439,,,11,,,Y,2,2
554,한국국토정보공사 강동송파지사,02,서울특별시 강동구 풍성로 144,37.530977,127.127962,,,11,,,Y,2,2
555,한국국토정보공사 강동송파지사,02,서울특별시 강동구 풍성로 144,37.530977,127.127962,,,11,,,Y,2,2
556,한국국토정보공사 강동송파지사,02,서울특별시 강동구 풍성로 144,37.530977,127.127962,,,11,,,Y,2,2
557,넥센타이어(주),02,서울특별시 강서구 마곡중앙로 177,37.570016,126.827498,,,11,,,N,2,2
558,넥센타이어(주),02,서울특별시 강서구 마곡중앙로 177,37.570016,126.827498,,,11,,,N,2,2
559,넥센타이어(주),02,서울특별시 강서구 마곡중앙로 177,37.570016,126.827498,,,11,,,N,2,2
560,넥센타이어(주),02,서울특별시 강서구 마곡중앙로 177,37.570016,126.827498,,,11,,,N,2,2
561,넥센타이어(주),02,서울특별시 강서구 마곡중앙로 177,37.570016,126.827498,,,11,,,N,2,2
562,넥센타이어(주),02,서울특별시 강서구 마곡중앙로 177,37.570016,126.827498,,,11,,,N,2,2
563,파킹클라우드 주식회사,02,서울특별시 구로구 구일로8길 140,37.49822,126.8772219,,,11,,,Y,2,2
564,파킹클라우드 주식회사,02,서울특별시 구로구 구일로8길 140,37.49822,126.8772219,,,11,,,Y,2,2
565,포르쉐 HPC 데스티네이션 이마트트레이더스 월계점,02,서울특별시 노원구 마들로3길 15,37.626509,127.0619799,,,11,,,Y,9,9
566,포르쉐 HPC 데스티네이션 이마트트레이더스 월계점,02,서울특별시 노원구 마들로3길 15,37.626509,127.0619799,,,11,,,Y,9,9
567,포르쉐 HPC 데스티네이션 이마트트레이더스 월계점,04,서울특별시 노원구 마들로3길 15,37.626509,127.0619799,,,11,,,Y,2,2
568,포르쉐 HPC 데스티네이션 이마트트레이더스 월계점,04,서울특별시 노원구 마들로3길 15,37.626509,127.0619799,,,11,,,Y,2,2
569,진원종합관리주식회사,02,서울특별시 노원구 노원로 3,37.621993,127.086663,,,11,,,Y,2,2
570,진원종합관리주식회사,02,서울특별시 노원구 노원로 3,37.621993,127.086663,,,11,,,Y,2,2
571,화곡보람5차아파트,02,서울특별시 강서구 월정로16길 38,37.527659,126.842049,,,11,,,Y,2,2
572,화곡보람5차아파트,02,서울특별시 강서구 월정로16길 38,37.527659,126.842049,,,11,,,Y,2,2
573,아세아(주),02,서울특별시 강남구 논현로 430,37.499001,127.038355,,,11,,,Y,2,2
574,아세아(주),02,서울특별시 강남구 논현로 430,37.499001,127.038355,,,11,,,Y,2,2
575,아세아(주),02,서울특별시 강남구 논현로 430,37.499001,127.038355,,,11,,,Y,2,2
576,아세아(주),02,서울특별시 강남구 논현로 430,37.499001,127.038355,,,11,,,Y,2,2
577,강동역두산위브센티움아파트,02,서울특별시 강동구 성안로 155,37.537236,127.134759,,,11,,,Y,2,2
578,강동역두산위브센티움아파트,02,서울특별시 강동구 성안로 155,37.537236,127.134759,,,11,,,Y,2,2
579,강동역두산위브센티움아파트,02,서울특별시 강동구 성안로 155,37.537236,127.134759,,,11,,,Y,2,2
580,송파호반베르디움더퍼스트,02,서울특별시 송파구 동남로 342,37.505558,127.139866,,,11,,,Y,2,2
581,송파호반베르디움더퍼스트,02,서울특별시 송파구 동남로 342,37.505558,127.139866,,,11,,,Y,2,2
582,송파호반베르디움더퍼스트,02,서울특별시 송파구 동남로 342,37.505558,127.139866,,,11,,,Y,2,2
583,송파호반베르디움더퍼스트,02,서울특별시 송파구 동남로 342,37.505558,127.139866,,,11,,,Y,2,2
584,송파호반베르디움더퍼스트,02,서울특별시 송파구 동남로 342,37.505558,127.139866,,,11,,,Y,2,2
585,송파호반베르디움더퍼스트,02,서울특별시 송파구 동남로 342,37.505558,127.139866,,,11,,,Y,2,2
586,송파호반베르디움더퍼스트,02,서울특별시 송파구 동남로 342,37.505558,127.139866,,,11,,,Y,2,2
587,은평구청,06,서울특별시 은평구 은평로 195,37.602792,126.92910299999,,,11,,,Y,2,2
588,은평구청,06,서울특별시 은평구 은평로 195,37.602792,126.92910299999,,,11,,,Y,3,3
589,은평구청,06,서울특별시 은평구 은평로 195,37.602792,126.92910299999,,,11,,,Y,2,2
590,은평구청,06,서울특별시 은평구 은평로 195,37.602792,126.92910299999,,,11,,,Y,3,3
591,은평구청,06,서울특별시 은평구 은평로 195,37.602792,126.92910299999,,,11,,,Y,2,2
592,포르쉐 HPC 데스티네이션 이마트 성수점,02,서울특별시 성동구 뚝섬로 379,37.539929,127.0534939,,,11,,,N,9,9
593,포르쉐 HPC 데스티네이션 이마트 성수점,02,서울특별시 성동구 뚝섬로 379,37.539929,127.0534939,,,11,,,N,9,9
594,포르쉐 HPC 데스티네이션 이마트 성수점,04,서울특별시 성동구 뚝섬로 379,37.539929,127.0534939,,,11,,,N,2,2
595,포르쉐 HPC 데스티네이션 이마트 성수점,04,서울특별시 성동구 뚝섬로 379,37.539929,127.0534939,,,11,,,N,2,2
596,포르쉐 HPC 데스티네이션 이마트 양재점,02,서울특별시 서초구 매헌로 16,37.463481,127.03696,,,11,,,Y,9,9
597,포르쉐 HPC 데스티네이션 이마트 양재점,02,서울특별시 서초구 매헌로 16,37.463481,127.03696,,,11,,,Y,9,9
598,포르쉐 HPC 데스티네이션 이마트 양재점,04,서울특별시 서초구 매헌로 16,37.463481,127.03696,,,11,,,Y,2,2
599,포르쉐 HPC 데스티네이션 이마트 양재점,04,서울특별시 서초구 매헌로 16,37.463481,127.03696,,,11,,,Y,2,2
600,북한산드림시티1차,02,서울특별시 도봉구 도봉로110마길 42,37.644465000000,127.0361929999,,,11,,,Y,2,2
601,포르쉐 데스티네이션 그랜드워커힐 서울,02,서울특별시 광진구 워커힐로 177,37.557607,127.110977,,,11,,,N,2,2
602,포르쉐 데스티네이션 그랜드워커힐 서울,02,서울특별시 광진구 워커힐로 177,37.557607,127.110977,,,11,,,N,2,2
603,포르쉐 데스티네이션 비스타워커힐 서울,02,서울특별시 광진구 워커힐로 177,37.557607,127.110977,,,11,,,N,2,2
604,포르쉐 데스티네이션 비스타워커힐 서울,02,서울특별시 광진구 워커힐로 177,37.557607,127.110977,,,11,,,N,2,2
605,아우디_서초 전시장,04,서울특별시 서초구 반포대로12길 3,37.484869000000,127.0114610000,,,11,,,Y,2,2
606,아우디_송파대로 전시장,04,서울특별시 송파구 충민로2길 8,37.479005000000,127.1266380000,,,11,,,Y,2,2
607,아우디_성수 서비스센터,04,서울특별시 성동구 성수일로6길 10,37.545103,127.05091999999,,,11,,,Y,2,2
608,아우디_성수 서비스센터,04,서울특별시 성동구 성수일로6길 10,37.545103,127.05091999999,,,11,,,Y,2,2
609,아우디_영등포 서비스 센터,04,서울특별시 영등포구 영신로 224,37.527336,126.90366100000,,,11,,,Y,2,2
610,아우디_도곡로 전시장 150KW,04,서울특별시 강남구 도곡로 121,37.490391,127.03354700000,,,11,,,Y,2,2
611,아우디_도산대로 전시장,04,서울특별시 강남구 도산대로 306,37.521443999999,127.0348710000,,,11,,,Y,2,2
612,구의3동 공영주차장,06,서울특별시 광진구 광나루로52길 83,37.539152000000,127.0913630000,,,11,,,Y,2,2
613,구의3동 공영주차장,04,서울특별시 광진구 광나루로52길 83,37.539152000000,127.0913630000,,,11,,,Y,2,2
614,구의3동 공영주차장,04,서울특별시 광진구 광나루로52길 83,37.539152000000,127.0913630000,,,11,,,Y,2,2
615,구의3동 공영주차장,04,서울특별시 광진구 광나루로52길 83,37.539152000000,127.0913630000,,,11,,,Y,2,2
616,구의3동 공영주차장,04,서울특별시 광진구 광나루로52길 83,37.539152000000,127.0913630000,,,11,,,Y,2,2
617,아우디_대치 전시장,04,서울특별시 강남구 영동대로 318,37.503019000000,127.06699,,,11,,,Y,2,2
618,신정종합복지관,06,서울특별시 양천구 신정중앙로 36,37.527434,126.85547299999,,,11,,,Y,2,2
619,신정종합복지관,06,서울특별시 양천구 신정중앙로 36,37.527434,126.85547299999,,,11,,,Y,2,2
620,아우디_개포 서비스 센터,04,서울특별시 강남구 논현로18길 9,37.478001999999,127.0455609999,,,11,,,Y,2,2
621,아우디_남산 전시장,04,서울특별시 중구 동호로 211,37.55671399999,127.00884100000,,,11,,,Y,2,2
622,반얀트리클럽 스파서울더클럽,02,서울특별시 중구 장충단로 60,37.550071000000,127.0004970000,,,11,,,N,3,3
623,반얀트리클럽 스파서울더클럽,02,서울특별시 중구 장충단로 60,37.550071000000,127.0004970000,,,11,,,N,2,2
624,양천구중앙도서관,06,서울특별시 양천구 신정로7길 81,37.513822013387,126.8333919590,,,11,,,Y,3,3
625,양천구중앙도서관,06,서울특별시 양천구 신정로7길 81,37.513822013387,126.8333919590,,,11,,,Y,3,3
626,대학동주민센터,06,서울특별시 관악구 신림로 111,37.47058499999,126.9369599999,,,11,,,Y,3,3
627,서울 중구청,06,서울특별시 중구 퇴계로10길 29,37.558435000000,126.9811149999,,,11,,,Y,3,3
628,서울 중구청,06,서울특별시 중구 퇴계로10길 29,37.558435000000,126.9811149999,,,11,,,Y,2,2
629,서울 중구청,06,서울특별시 중구 퇴계로10길 29,37.558435000000,126.9811149999,,,11,,,Y,2,2
630,동화동 공영주차장,06,서울특별시 중구 다산로36가길 14-3,37.561612129,127.01890125,,,11,,,Y,2,2
631,동화동 공영주차장,06,서울특별시 중구 다산로36가길 14-3,37.561612129,127.01890125,,,11,,,Y,3,3
632,행운동 공영주차장,06,서울특별시 관악구 행운4길 21,37.479778999,126.96048500,,,11,,,Y,2,2
633,창조융합연구동,06,서울특별시 노원구 공릉로 232,37.632288999,127.07916800,,,11,,,Y,2,2
634,EV스테이션강동,04,서울특별시 강동구 천호대로 1221,37.536051,127.146385,,,11,,,Y,9,9
635,EV스테이션강동,04,서울특별시 강동구 천호대로 1221,37.536051,127.146385,,,11,,,Y,9,9
636,EV스테이션강동,04,서울특별시 강동구 천호대로 1221,37.536051,127.146385,,,11,,,Y,9,9
637,EV스테이션강동,04,서울특별시 강동구 천호대로 1221,37.536051,127.146385,,,11,,,Y,9,9
638,EV스테이션강동,04,서울특별시 강동구 천호대로 1221,37.536051,127.146385,,,11,,,Y,9,9
639,EV스테이션강동,04,서울특별시 강동구 천호대로 1221,37.536051,127.146385,,,11,,,Y,9,9
640,EV스테이션강동,04,서울특별시 강동구 천호대로 1221,37.536051,127.146385,,,11,,,Y,9,9
641,고척동 제니스 아이스링크장,02,서울특별시 구로구 안양천로537길 16,37.503859000,126.86871600,,,11,,,Y,2,2
642,고척동 제니스 아이스링크장,02,서울특별시 구로구 안양천로537길 16,37.503859000,126.86871600,,,11,,,Y,2,2
643,반포복개천공영주차장,04,서울특별시 서초구 서초중앙로 255,37.504295093,127.01008106,,,11,,,Y,2,2
644,반포복개천공영주차장,04,서울특별시 서초구 서초중앙로 255,37.504295093,127.01008106,,,11,,,Y,2,2
645,반포복개천공영주차장,04,서울특별시 서초구 서초중앙로 255,37.504295093,127.01008106,,,11,,,Y,2,2
646,반포복개천공영주차장,06,서울특별시 서초구 서초중앙로 255,37.504295093,127.01008106,,,11,,,Y,2,2
647,홈플러스 강서점(본사),02,서울특별시 강서구 화곡로 398,37.5584425,126.8547893,,,11,,,Y,2,2
648,홈플러스 강서점(본사),02,서울특별시 강서구 화곡로 398,37.5584425,126.8547893,,,11,,,Y,2,2
649,홈플러스 강서점(본사),02,서울특별시 강서구 화곡로 398,37.5584425,126.8547893,,,11,,,Y,2,2
650,홈플러스 강서점(본사),04,서울특별시 강서구 화곡로 398,37.5584425,126.8547893,,,11,,,Y,2,2
651,홈플러스 강서점(본사),04,서울특별시 강서구 화곡로 398,37.5584425,126.8547893,,,11,,,Y,2,2
652,홈플러스 강서점(본사),06,서울특별시 강서구 화곡로 398,37.5584425,126.8547893,,,11,,,Y,2,2
653,포르쉐 데스티네이션 홈플러스 본사(강서점),02,서울특별시 강서구 화곡로 398,37.5584281,126.854901,,,11,,,Y,2,2
654,포르쉐 데스티네이션 홈플러스 본사(강서점),02,서울특별시 강서구 화곡로 398,37.5584281,126.854901,,,11,,,Y,2,2
655,포르쉐 데스티네이션 홈플러스 본사(강서점),02,서울특별시 강서구 화곡로 398,37.5584281,126.854901,,,11,,,Y,3,3
656,현대계동 본사,04,서울특별시 종로구 율곡로 75,37.578184,126.98751,,,11,,,Y,2,2
657,현대계동 본사,04,서울특별시 종로구 율곡로 75,37.578184,126.98751,,,11,,,Y,2,2
658,현대계동 본사,04,서울특별시 종로구 율곡로 75,37.578184,126.98751,,,11,,,Y,2,2
659,현대계동 본사,04,서울특별시 종로구 율곡로 75,37.578184,126.98751,,,11,,,Y,2,2
660,효성빌라청담101,06,서울특별시 강남구 압구정로71길 28,37.528218,127.046477,,,11,,,Y,2,2
661,효성빌라청담101,06,서울특별시 강남구 압구정로71길 28,37.528218,127.046477,,,11,,,Y,2,2
662,마곡9단지,02,서울특별시 강서구 공항대로 103,37.561906999,126.81860899,,,11,,,Y,2,2
663,마곡9단지,02,서울특별시 강서구 공항대로 103,37.561906999,126.81860899,,,11,,,Y,2,2
664,마곡9단지,02,서울특별시 강서구 공항대로 103,37.561906999,126.81860899,,,11,,,Y,3,3
665,마곡9단지,02,서울특별시 강서구 공항대로 103,37.561906999,126.81860899,,,11,,,Y,3,3
666,마곡9단지,02,서울특별시 강서구 공항대로 103,37.561906999,126.81860899,,,11,,,Y,2,2
667,마곡9단지,02,서울특별시 강서구 공항대로 103,37.561906999,126.81860899,,,11,,,Y,3,3
668,마곡9단지,02,서울특별시 강서구 공항대로 103,37.561906999,126.81860899,,,11,,,Y,2,2
669,마곡9단지,06,서울특별시 강서구 공항대로 103,37.561906999,126.81860899,,,11,,,Y,2,2
670,마곡9단지,06,서울특별시 강서구 공항대로 103,37.561906999,126.81860899,,,11,,,Y,2,2
671,마곡9단지,06,서울특별시 강서구 공항대로 103,37.561906999,126.81860899,,,11,,,Y,2,2
672,마곡9단지,06,서울특별시 강서구 공항대로 103,37.561906999,126.81860899,,,11,,,Y,2,2
673,마곡9단지,06,서울특별시 강서구 공항대로 103,37.561906999,126.81860899,,,11,,,Y,2,2
674,신당동 공공복합청사,06,서울특별시 중구 다산로33길 3,37.562018999,127.01445199,,,11,,,Y,2,2
675,밤고개로21길 공영주차장,04,서울특별시 강남구 밤고개로21길 71,37.474252000,127.11416600,,,11,,,Y,2,2
676,밤고개로21길 공영주차장,04,서울특별시 강남구 밤고개로21길 71,37.474252000,127.11416600,,,11,,,Y,2,2
677,밤고개로21길 공영주차장,04,서울특별시 강남구 밤고개로21길 71,37.474252000,127.11416600,,,11,,,Y,3,3
678,밤고개로21길 공영주차장,04,서울특별시 강남구 밤고개로21길 71,37.474252000,127.11416600,,,11,,,Y,3,3
679,밤고개로21길 공영주차장,06,서울특별시 강남구 밤고개로21길 71,37.474252000,127.11416600,,,11,,,Y,2,2
680,남부초 공영주차장,06,서울특별시 관악구 남부순환로163길 14,37.485083000,126.92215600,,,11,,,Y,2,2
681,염리공영주차장,04,서울특별시 마포구 큰우물로 61,37.54199400,126.94520799,,,11,,,Y,2,2
682,염리공영주차장,04,서울특별시 마포구 큰우물로 61,37.54199400,126.94520799,,,11,,,Y,2,2
683,염리공영주차장,04,서울특별시 마포구 큰우물로 61,37.54199400,126.94520799,,,11,,,Y,2,2
684,염리공영주차장,04,서울특별시 마포구 큰우물로 61,37.54199400,126.94520799,,,11,,,Y,2,2
685,염리공영주차장,06,서울특별시 마포구 큰우물로 61,37.54199400,126.94520799,,,11,,,Y,3,3
686,포르쉐 HPC 데스티네이션 서울 웨스틴 조선 호텔,04,서울특별시 중구 소공로 106,37.564462999,126.98020500,,,11,,,Y,2,2
687,포르쉐 HPC 데스티네이션 서울 웨스틴 조선 호텔,04,서울특별시 중구 소공로 106,37.564462999,126.98020500,,,11,,,Y,2,2
688,포르쉐 HPC 데스티네이션 서울 웨스틴 조선 호텔,02,서울특별시 중구 소공로 106,37.564462999,126.98020500,,,11,,,Y,2,2
689,포르쉐 HPC 데스티네이션 서울 웨스틴 조선 호텔,02,서울특별시 중구 소공로 106,37.564462999,126.98020500,,,11,,,Y,3,3
690,서울특별시 서울시립대,02,서울특별시 동대문구 서울시립대로 163,37.583377999,127.05930899,,,11,,,N,3,3
691,위례지구 18단지,06,서울특별시 송파구 위례서이로 25,37.493193,127.137845,,,11,,,Y,3,3
692,위례지구 18단지,02,서울특별시 송파구 위례서이로 25,37.493193,127.137845,,,11,,,Y,2,2
693,위례지구 18단지,02,서울특별시 송파구 위례서이로 25,37.493193,127.137845,,,11,,,Y,2,2
694,위례지구 18단지,02,서울특별시 송파구 위례서이로 25,37.493193,127.137845,,,11,,,Y,2,2
695,위례지구 18단지,02,서울특별시 송파구 위례서이로 25,37.493193,127.137845,,,11,,,Y,2,2
696,위례지구 13단지,06,서울특별시 송파구 위례서이로 25,37.48250199,127.13819199,,,11,,,Y,3,3
697,위례지구 13단지,02,서울특별시 송파구 위례서이로 25,37.48250199,127.13819199,,,11,,,Y,3,3
698,위례지구 13단지,02,서울특별시 송파구 위례서이로 25,37.48250199,127.13819199,,,11,,,Y,2,2
699,포르쉐 HPC 에스-오일 예술의전당앞주유소,04,서울특별시 서초구 남부순환로 2391,37.480557,127.011981,,,11,,,Y,2,2
700,포르쉐 HPC 에스-오일 예술의전당앞주유소,04,서울특별시 서초구 남부순환로 2391,37.480557,127.011981,,,11,,,Y,2,2
701,등나무근린공원 공영주차장,04,서울특별시 노원구 동일로204가길 41-2,37.640994008,127.0674399,100,동시,11,,,Y,3,3
702,등나무근린공원 공영주차장,04,서울특별시 노원구 동일로204가길 41-2,37.640994008,127.0674399,100,동시,11,,,Y,3,3
703,등나무근린공원 공영주차장,04,서울특별시 노원구 동일로204가길 41-2,37.640994008,127.0674399,100,동시,11,,,Y,2,2
704,등나무근린공원 공영주차장,04,서울특별시 노원구 동일로204가길 41-2,37.640994008,127.0674399,100,동시,11,,,Y,2,2
705,등나무근린공원 공영주차장,06,서울특별시 노원구 동일로204가길 41-2,37.640994008,127.0674399,50,단독,11,,,Y,2,2
706,북한산 진관사공영주차장,04,서울특별시 은평구 진관길 46,37.64070746,126.94293086,100,동시,11,,,Y,2,2
707,북한산 진관사공영주차장,04,서울특별시 은평구 진관길 46,37.64070746,126.94293086,100,동시,11,,,Y,2,2
708,북한산 진관사공영주차장,04,서울특별시 은평구 진관길 46,37.64070746,126.94293086,100,동시,11,,,Y,2,2
709,북한산 진관사공영주차장,04,서울특별시 은평구 진관길 46,37.64070746,126.94293086,100,동시,11,,,Y,2,2
710,북한산 진관사공영주차장,06,서울특별시 은평구 진관길 46,37.64070746,126.94293086,50,단독,11,,,Y,2,2
711,위례지구 17단지,02,서울특별시 송파구 위례송파로 123,37.48574707,127.1479273,7,단독,11,,,Y,2,2
712,위례지구 17단지,02,서울특별시 송파구 위례송파로 123,37.48574707,127.1479273,7,단독,11,,,Y,2,2
713,위례지구 17단지,02,서울특별시 송파구 위례송파로 123,37.48574707,127.1479273,7,단독,11,,,Y,3,3
714,위례지구 17단지,02,서울특별시 송파구 위례송파로 123,37.48574707,127.1479273,7,단독,11,,,Y,2,2
715,위례지구 17단지,02,서울특별시 송파구 위례송파로 123,37.48574707,127.1479273,7,단독,11,,,Y,3,3
716,위례지구 17단지,02,서울특별시 송파구 위례송파로 123,37.48574707,127.1479273,7,단독,11,,,Y,2,2
717,위례지구 17단지,06,서울특별시 송파구 위례송파로 123,37.48574707,127.1479273,50,단독,11,,,Y,2,2
718,위례지구 17단지,06,서울특별시 송파구 위례송파로 123,37.48574707,127.1479273,50,단독,11,,,Y,2,2
719,위례지구 17단지,06,서울특별시 송파구 위례송파로 123,37.48574707,127.1479273,50,단독,11,,,Y,2,2
720,위례지구 15단지,02,서울특별시 송파구 위례송파로 89,37.48630833,127.1446640,7,단독,11,,,Y,3,3
721,위례지구 15단지,02,서울특별시 송파구 위례송파로 89,37.48630833,127.1446640,7,단독,11,,,Y,3,3
722,위례지구 15단지,06,서울특별시 송파구 위례송파로 89,37.48630833,127.1446640,50,단독,11,,,Y,2,2
723,신월6동복합청사,02,서울특별시 양천구 남부순환로83길 47,37.517957024,126.84518294,7,단독,11,,,Y,2,2
724,신월6동복합청사,06,서울특별시 양천구 남부순환로83길 47,37.517957024,126.84518294,50,단독,11,,,Y,3,3
725,마포 T 타운,02,서울특별시 마포구 마포대로 144,37.54699300,126.95376300,7,단독,11,,,Y,2,2
726,노원에코센터,06,서울특별시 노원구 덕릉로 460,37.644399000,127.05994699,50,단독,11,,,Y,3,3
727,청솔프라자,02,서울특별시 구로구 서해안로 2096,37.479767662,126.82311689,7,단독,11,,,Y,2,2
728,망원동 공영주차장,02,서울특별시 마포구 동교로1길 45,37.555860999,126.89668400,7,단독,11,,,Y,3,3
729,망원동 공영주차장,02,서울특별시 마포구 동교로1길 45,37.555860999,126.89668400,7,단독,11,,,Y,2,2
730,망원동 공영주차장,02,서울특별시 마포구 동교로1길 45,37.555860999,126.89668400,7,단독,11,,,Y,1,1
731,서울특별시 서울시립대학교(법학관주차장),02,서울특별시 동대문구 서울시립대로 163,37.583990159,127.05803226,7,단독,11,,,Y,2,2
732,서울특별시 서울시립대학교(법학관주차장),02,서울특별시 동대문구 서울시립대로 163,37.583990159,127.05803226,7,단독,11,,,Y,2,2
733,염리동종합사회복지관,06,서울특별시 마포구 대흥로24길 50,37.541854999,126.95659599,100,단독,11,,,Y,2,2
734,서일대학교,06,서울특별시 중랑구 용마산로90길 28,37.58610000,127.09722199,50,단독,11,,,Y,2,2
735,서일대학교,06,서울특별시 중랑구 용마산로90길 28,37.58610000,127.09722199,50,단독,11,,,Y,2,2
736,서일대학교,06,서울특별시 중랑구 용마산로90길 28,37.58610000,127.09722199,50,단독,11,,,Y,2,2
737,광진정보도서관,02,서울특별시 광진구 아차산로78길 90,37.550881999,127.11049899,7,단독,11,,,Y,2,2
738,광진정보도서관,02,서울특별시 광진구 아차산로78길 90,37.550881999,127.11049899,7,단독,11,,,Y,2,2
739,한국타이어 역삼사옥,06,서울특별시 강남구 테헤란로 133,37.500138,127.03345100,50,단독,11,,,Y,2,2
740,한국타이어 역삼사옥,02,서울특별시 강남구 테헤란로 133,37.500138,127.03345100,7,단독,11,,,Y,2,2
741,한국타이어 역삼사옥,02,서울특별시 강남구 테헤란로 133,37.500138,127.03345100,7,단독,11,,,Y,2,2
742,한국타이어 역삼사옥,02,서울특별시 강남구 테헤란로 133,37.500138,127.03345100,7,단독,11,,,Y,2,2
743,한국타이어 역삼사옥,02,서울특별시 강남구 테헤란로 133,37.500138,127.03345100,7,단독,11,,,Y,2,2
744,한국타이어 역삼사옥,02,서울특별시 강남구 테헤란로 133,37.500138,127.03345100,7,단독,11,,,Y,3,3
745,한국타이어 역삼사옥,02,서울특별시 강남구 테헤란로 133,37.500138,127.03345100,7,단독,11,,,Y,2,2
746,한국타이어 역삼사옥,02,서울특별시 강남구 테헤란로 133,37.500138,127.03345100,7,단독,11,,,Y,2,2
747,용산주차빌딩,02,서울특별시 용산구 새창로49길 42,37.534272000,126.96531800,7,단독,11,,,N,2,2
748,용산주차빌딩,02,서울특별시 용산구 새창로49길 42,37.534272000,126.96531800,7,단독,11,,,N,2,2
749,KTnG 영등포지사,02,서울특별시 영등포구 선유로 11,37.515746,126.887575,7,단독,11,,,Y,2,2
750,종묘공영주차장,02,서울특별시 종로구 종로 157,37.57299000,126.99437000,7,단독,11,,,N,2,2
751,종묘공영주차장,02,서울특별시 종로구 종로 157,37.57299000,126.99437000,7,단독,11,,,N,2,2
752,종묘공영주차장,02,서울특별시 종로구 종로 157,37.57299000,126.99437000,7,단독,11,,,N,2,2
753,종묘공영주차장,02,서울특별시 종로구 종로 157,37.57299000,126.99437000,7,단독,11,,,N,2,2
754,종묘공영주차장,02,서울특별시 종로구 종로 157,37.57299000,126.99437000,7,단독,11,,,N,2,2
755,종묘공영주차장,02,서울특별시 종로구 종로 157,37.57299000,126.99437000,7,단독,11,,,N,2,2
756,잠실역공영주차장,02,서울특별시 송파구 올림픽로 299,37.514970000,127.10424999,7,단독,11,,,N,2,2
757,잠실역공영주차장,02,서울특별시 송파구 올림픽로 299,37.514970000,127.10424999,7,단독,11,,,N,2,2
758,잠실역공영주차장,02,서울특별시 송파구 올림픽로 299,37.514970000,127.10424999,7,단독,11,,,N,2,2
759,잠실역공영주차장,02,서울특별시 송파구 올림픽로 299,37.514970000,127.10424999,7,단독,11,,,N,2,2
760,잠실역공영주차장,02,서울특별시 송파구 올림픽로 299,37.514970000,127.10424999,7,단독,11,,,N,2,2
761,잠실역공영주차장,02,서울특별시 송파구 올림픽로 299,37.514970000,127.10424999,7,단독,11,,,N,2,2
762,사당노외공영주차장,02,서울특별시 서초구 과천대로 950-18,37.475251999,126.983983,7,단독,11,,,N,2,2
763,사당노외공영주차장,02,서울특별시 서초구 과천대로 950-18,37.475251999,126.983983,7,단독,11,,,N,2,2
764,사당노외공영주차장,02,서울특별시 서초구 과천대로 950-18,37.475251999,126.983983,7,단독,11,,,N,2,2
765,사당노외공영주차장,02,서울특별시 서초구 과천대로 950-18,37.475251999,126.983983,7,단독,11,,,N,2,2
766,사당노외공영주차장,02,서울특별시 서초구 과천대로 950-18,37.475251999,126.983983,7,단독,11,,,N,2,2
767,사당노외공영주차장,02,서울특별시 서초구 과천대로 950-18,37.475251999,126.983983,7,단독,11,,,N,2,2
768,학여울역 환승공영주차장,02,서울특별시 강남구 남부순환로 3104,37.496027,127.07233600,7,단독,11,,,N,2,2
769,학여울역 환승공영주차장,02,서울특별시 강남구 남부순환로 3104,37.496027,127.07233600,7,단독,11,,,N,2,2
770,학여울역 환승공영주차장,02,서울특별시 강남구 남부순환로 3104,37.496027,127.07233600,7,단독,11,,,N,2,2
771,학여울역 환승공영주차장,02,서울특별시 강남구 남부순환로 3104,37.496027,127.07233600,7,단독,11,,,N,2,2
772,학여울역 환승공영주차장,02,서울특별시 강남구 남부순환로 3104,37.496027,127.07233600,7,단독,11,,,N,2,2
773,학여울역 환승공영주차장,02,서울특별시 강남구 남부순환로 3104,37.496027,127.07233600,7,단독,11,,,N,2,2
774,수서역공영주차장,02,서울특별시 강남구 광평로 지하270,37.487522486,127.09996851,7,단독,11,,,N,2,2
775,수서역공영주차장,02,서울특별시 강남구 광평로 지하270,37.487522486,127.09996851,7,단독,11,,,N,2,2
776,구세군길 공영주차장,04,서울특별시 강북구 인수봉로20가길 21,37.626094999,127.013479,100,동시,11,,,N,2,2
777,구세군길 공영주차장,04,서울특별시 강북구 인수봉로20가길 21,37.626094999,127.013479,100,동시,11,,,N,2,2
778,한남동공영주차장,04,서울특별시 용산구 이태원로 224-19,37.534856,127.00028700,100,동시,11,,,N,2,2
779,한남동공영주차장,04,서울특별시 용산구 이태원로 224-19,37.534856,127.00028700,100,동시,11,,,N,2,2
780,한남동공영주차장,02,서울특별시 용산구 이태원로 224-19,37.534856,127.00028700,7,단독,11,,,N,2,2
781,한남동공영주차장,02,서울특별시 용산구 이태원로 224-19,37.534856,127.00028700,7,단독,11,,,N,2,2
782,한남유수지 공영주차장,04,서울특별시 용산구 독서당로 18,37.530022999,127.00739699,100,동시,11,,,Y,2,2
783,한남유수지 공영주차장,04,서울특별시 용산구 독서당로 18,37.530022999,127.00739699,100,동시,11,,,Y,2,2
784,청파동1마을공원 공영주차장,04,서울특별시 용산구 원효로97길 50,37.542771,126.96859500,100,동시,11,,,N,2,2
785,청파동1마을공원 공영주차장,04,서울특별시 용산구 원효로97길 50,37.542771,126.96859500,100,동시,11,,,N,2,2
786,신천유수지주차장,04,서울특별시 송파구 오금로2길 22,37.521766487,127.10225300,100,동시,11,,,N,3,3
787,신천유수지주차장,04,서울특별시 송파구 오금로2길 22,37.521766487,127.10225300,100,동시,11,,,N,3,3
788,관악구민종합체육센터,04,서울특별시 관악구 낙성대로3길 37,37.473057000,126.96031899,100,동시,11,,,Y,2,2
789,관악구민종합체육센터,04,서울특별시 관악구 낙성대로3길 37,37.473057000,126.96031899,100,동시,11,,,Y,2,2
790,시흥5동 복합청사,06,서울특별시 금천구 금하로24길 6,37.450833000,126.90850299,50,단독,11,,,Y,2,2
791,시흥5동 복합청사,06,서울특별시 금천구 금하로24길 6,37.450833000,126.90850299,50,단독,11,,,Y,2,2
792,한국토지주택공사 서울지역본부 전기차 충전소,04,서울특별시 강남구 선릉로121길 12,37.514331000,127.04094999,100,동시,11,,,Y,2,2
793,한국토지주택공사 서울지역본부 전기차 충전소,04,서울특별시 강남구 선릉로121길 12,37.514331000,127.04094999,100,동시,11,,,Y,2,2
794,계남다목적체육관,04,서울특별시 양천구 신정로 273-5,37.513079999,126.85052300,100,동시,11,,,Y,2,2
795,계남다목적체육관,04,서울특별시 양천구 신정로 273-5,37.513079999,126.85052300,100,동시,11,,,Y,2,2
796,대림택시,04,서울특별시 노원구 공릉로42길 107,37.625679,127.08541700,200,동시,11,,,Y,2,2
797,대림택시,04,서울특별시 노원구 공릉로42길 107,37.625679,127.08541700,200,동시,11,,,Y,2,2
798,대림택시,02,서울특별시 노원구 공릉로42길 107,37.625679,127.08541700,7,단독,11,,,Y,2,2
799,대림택시,02,서울특별시 노원구 공릉로42길 107,37.625679,127.08541700,7,단독,11,,,Y,2,2
800,면목유수지 공영주차장,04,서울특별시 중랑구 사가정로 332,37.580920680,127.08035780,100,동시,11,,,N,2,2
801,면목유수지 공영주차장,04,서울특별시 중랑구 사가정로 332,37.580920680,127.08035780,100,동시,11,,,N,2,2
802,면목유수지 공영주차장,04,서울특별시 중랑구 사가정로 332,37.580920680,127.08035780,100,동시,11,,,N,3,3
803,면목유수지 공영주차장,04,서울특별시 중랑구 사가정로 332,37.580920680,127.08035780,100,동시,11,,,N,3,3
804,수서역(남)공영주차장,02,서울특별시 강남구 광평로 지하270,37.486847225,127.10102048,7,단독,11,,,N,2,2
805,수서역(남)공영주차장,02,서울특별시 강남구 광평로 지하270,37.486847225,127.10102048,7,단독,11,,,N,2,2
806,수서역(남)공영주차장,02,서울특별시 강남구 광평로 지하270,37.486847225,127.10102048,7,단독,11,,,N,2,2
807,수서역(남)공영주차장,02,서울특별시 강남구 광평로 지하270,37.486847225,127.10102048,7,단독,11,,,N,2,2
808,수서역(남)공영주차장,02,서울특별시 강남구 광평로 지하270,37.486847225,127.10102048,7,단독,11,,,N,2,2
809,수서역(남)공영주차장,04,서울특별시 강남구 광평로 지하270,37.486847225,127.10102048,100,동시,11,,,N,2,2
810,수서역(남)공영주차장,04,서울특별시 강남구 광평로 지하270,37.486847225,127.10102048,100,동시,11,,,N,2,2
811,덕수고등학교 주차장,02,서울특별시 송파구 위례북로 10,37.485445999,127.14691299,7,단독,11,,,Y,2,2
812,덕수고등학교 주차장,02,서울특별시 송파구 위례북로 10,37.485445999,127.14691299,7,단독,11,,,Y,2,2
813,신신기업,04,서울특별시 강서구 강서로 519-11,37.571656,126.84127299,100,동시,11,,,Y,2,2
814,신신기업,04,서울특별시 강서구 강서로 519-11,37.571656,126.84127299,100,동시,11,,,Y,2,2
815,신신기업,04,서울특별시 강서구 강서로 519-11,37.571656,126.84127299,100,동시,11,,,Y,2,2
816,신신기업,04,서울특별시 강서구 강서로 519-11,37.571656,126.84127299,100,동시,11,,,Y,2,2
817,국립대한민국임시정부기념관,06,서울특별시 서대문구 통일로 279-24,37.575989999,126.95426299,50,단독,11,,,Y,2,2
818,국립대한민국임시정부기념관,02,서울특별시 서대문구 통일로 279-24,37.575989999,126.95426299,7,단독,11,,,Y,2,2
819,국립대한민국임시정부기념관,02,서울특별시 서대문구 통일로 279-24,37.575989999,126.95426299,7,단독,11,,,Y,2,2
820,마장축산물시장 공영주차장,06,서울특별시 성동구 살곶이길 18,37.571436762,127.04039074,50,단독,11,,,N,1,1
821,마장축산물시장 공영주차장,06,서울특별시 성동구 살곶이길 18,37.571436762,127.04039074,50,단독,11,,,N,1,1
822,마장축산물시장 공영주차장,02,서울특별시 성동구 살곶이길 18,37.571436762,127.04039074,7,단독,11,,,N,1,1
823,마장축산물시장 공영주차장,02,서울특별시 성동구 살곶이길 18,37.571436762,127.04039074,7,단독,11,,,N,1,1
824,도봉어르신문화센터,06,서울특별시 도봉구 마들로 536,37.659869000,127.05091999,50,단독,11,,,Y,2,2
825,효창파크뷰데시앙,06,서울특별시 용산구 효창원로 227,37.547493,126.96301200,50,단독,11,,,Y,9,9
826,효창파크뷰데시앙,06,서울특별시 용산구 효창원로 227,37.547493,126.96301200,50,단독,11,,,Y,9,9
827,효창파크뷰데시앙,06,서울특별시 용산구 효창원로 227,37.547493,126.96301200,50,단독,11,,,Y,9,9
828,효창파크뷰데시앙,06,서울특별시 용산구 효창원로 227,37.547493,126.96301200,50,단독,11,,,Y,9,9
829,효창파크뷰데시앙,06,서울특별시 용산구 효창원로 227,37.547493,126.96301200,50,단독,11,,,Y,9,9
830,세곡복합문화센터,04,서울특별시 강남구 자곡로 100,37.471501999,127.09450100,100,동시,11,,,Y,9,9
831,세곡복합문화센터,04,서울특별시 강남구 자곡로 100,37.471501999,127.09450100,100,동시,11,,,Y,9,9
832,대림강변타운,02,서울특별시 성동구 고산자로 160,37.5544481,127.0346918,7,단독,11,,,Y,2,2
833,대림강변타운,02,서울특별시 성동구 고산자로 160,37.5544481,127.0346918,7,단독,11,,,Y,2,2
834,대림강변타운,02,서울특별시 성동구 고산자로 160,37.5544481,127.0346918,7,단독,11,,,Y,2,2
835,대림강변타운,02,서울특별시 성동구 고산자로 160,37.5544481,127.0346918,7,단독,11,,,Y,2,2
836,대림강변타운,02,서울특별시 성동구 고산자로 160,37.5544481,127.0346918,7,단독,11,,,Y,2,2
837,대림강변타운,02,서울특별시 성동구 고산자로 160,37.5544481,127.0346918,7,단독,11,,,Y,2,2
838,대림강변타운,02,서울특별시 성동구 고산자로 160,37.5544481,127.0346918,7,단독,11,,,Y,2,2
839,대림강변타운,02,서울특별시 성동구 고산자로 160,37.5544481,127.0346918,7,단독,11,,,Y,2,2
840,대림강변타운,02,서울특별시 성동구 고산자로 160,37.5544481,127.0346918,7,단독,11,,,Y,2,2
841,상암월드컵파크4단지,02,서울특별시 마포구 상암산로1길 24,37.577972776,126.88769189,7,단독,11,,,Y,2,2
842,상암월드컵파크4단지,02,서울특별시 마포구 상암산로1길 24,37.577972776,126.88769189,7,단독,11,,,Y,2,2
843,상암월드컵파크4단지,02,서울특별시 마포구 상암산로1길 24,37.577972776,126.88769189,7,단독,11,,,Y,2,2
844,상암월드컵파크4단지,02,서울특별시 마포구 상암산로1길 24,37.577972776,126.88769189,7,단독,11,,,Y,2,2
845,상암월드컵파크4단지,02,서울특별시 마포구 상암산로1길 24,37.577972776,126.88769189,7,단독,11,,,Y,2,2
846,상암월드컵파크4단지,02,서울특별시 마포구 상암산로1길 24,37.577972776,126.88769189,7,단독,11,,,Y,2,2
847,상암월드컵파크4단지,02,서울특별시 마포구 상암산로1길 24,37.577972776,126.88769189,7,단독,11,,,Y,2,2
848,상암월드컵파크4단지,02,서울특별시 마포구 상암산로1길 24,37.577972776,126.88769189,7,단독,11,,,Y,2,2
849,상암월드컵파크4단지,02,서울특별시 마포구 상암산로1길 24,37.577972776,126.88769189,7,단독,11,,,Y,2,2
850,상암월드컵파크4단지,02,서울특별시 마포구 상암산로1길 24,37.577972776,126.88769189,7,단독,11,,,Y,2,2
851,상암월드컵파크4단지,02,서울특별시 마포구 상암산로1길 24,37.577972776,126.88769189,7,단독,11,,,Y,2,2
852,상암월드컵파크4단지,02,서울특별시 마포구 상암산로1길 24,37.577972776,126.88769189,7,단독,11,,,Y,2,2
853,상암월드컵파크4단지,02,서울특별시 마포구 상암산로1길 24,37.577972776,126.88769189,7,단독,11,,,Y,2,2
854,상암월드컵파크4단지,02,서울특별시 마포구 상암산로1길 24,37.577972776,126.88769189,7,단독,11,,,Y,2,2
855,상암월드컵파크4단지,02,서울특별시 마포구 상암산로1길 24,37.577972776,126.88769189,7,단독,11,,,Y,2,2
856,상암월드컵파크4단지,02,서울특별시 마포구 상암산로1길 24,37.577972776,126.88769189,7,단독,11,,,Y,2,2
857,상암월드컵파크4단지,02,서울특별시 마포구 상암산로1길 24,37.577972776,126.88769189,7,단독,11,,,Y,2,2
858,상암월드컵파크4단지,02,서울특별시 마포구 상암산로1길 24,37.577972776,126.88769189,7,단독,11,,,Y,2,2
859,당산동부센트레빌,02,서울특별시 영등포구 영신로 191,37.524790120,126.90207699,7,단독,11,,,Y,2,2
860,당산동부센트레빌,02,서울특별시 영등포구 영신로 191,37.524790120,126.90207699,7,단독,11,,,Y,2,2
861,당산동부센트레빌,02,서울특별시 영등포구 영신로 191,37.524790120,126.90207699,7,단독,11,,,Y,2,2
862,당산동부센트레빌,02,서울특별시 영등포구 영신로 191,37.524790120,126.90207699,7,단독,11,,,Y,2,2
863,당산동부센트레빌,02,서울특별시 영등포구 영신로 191,37.524790120,126.90207699,7,단독,11,,,Y,3,3
864,당산동부센트레빌,02,서울특별시 영등포구 영신로 191,37.524790120,126.90207699,7,단독,11,,,Y,2,2
865,당산동부센트레빌,02,서울특별시 영등포구 영신로 191,37.524790120,126.90207699,7,단독,11,,,Y,2,2
866,흑석한강푸르지오,02,서울특별시 동작구 흑석한강로 27,37.504724682,126.96556797,7,단독,11,,,Y,2,2
867,흑석한강푸르지오,02,서울특별시 동작구 흑석한강로 27,37.504724682,126.96556797,7,단독,11,,,Y,2,2
868,흑석한강푸르지오,02,서울특별시 동작구 흑석한강로 27,37.504724682,126.96556797,7,단독,11,,,Y,2,2
869,흑석한강푸르지오,02,서울특별시 동작구 흑석한강로 27,37.504724682,126.96556797,7,단독,11,,,Y,2,2
870,흑석한강푸르지오,02,서울특별시 동작구 흑석한강로 27,37.504724682,126.96556797,7,단독,11,,,Y,2,2
871,흑석한강푸르지오,02,서울특별시 동작구 흑석한강로 27,37.504724682,126.96556797,7,단독,11,,,Y,3,3
872,흑석한강푸르지오,02,서울특별시 동작구 흑석한강로 27,37.504724682,126.96556797,7,단독,11,,,Y,3,3
873,흑석한강푸르지오,02,서울특별시 동작구 흑석한강로 27,37.504724682,126.96556797,7,단독,11,,,Y,2,2
874,흑석한강푸르지오,02,서울특별시 동작구 흑석한강로 27,37.504724682,126.96556797,7,단독,11,,,Y,2,2
875,신길경남아파트,02,서울특별시 영등포구 영등포로 351,37.515343392,126.91800530,7,단독,11,,,Y,2,2
876,신길경남아파트,02,서울특별시 영등포구 영등포로 351,37.515343392,126.91800530,7,단독,11,,,Y,2,2
877,신길경남아파트,02,서울특별시 영등포구 영등포로 351,37.515343392,126.91800530,7,단독,11,,,Y,2,2
878,신길경남아파트,02,서울특별시 영등포구 영등포로 351,37.515343392,126.91800530,7,단독,11,,,Y,2,2
879,신길경남아파트,02,서울특별시 영등포구 영등포로 351,37.515343392,126.91800530,7,단독,11,,,Y,2,2
880,신도림7차이편한세상,02,서울특별시 구로구 신도림로 56-13,37.508392842,126.88219791,7,단독,11,,,Y,2,2
881,신도림7차이편한세상,02,서울특별시 구로구 신도림로 56-13,37.508392842,126.88219791,7,단독,11,,,Y,2,2
882,신도림7차이편한세상,02,서울특별시 구로구 신도림로 56-13,37.508392842,126.88219791,7,단독,11,,,Y,2,2
883,신도림7차이편한세상,02,서울특별시 구로구 신도림로 56-13,37.508392842,126.88219791,7,단독,11,,,Y,2,2
884,신도림7차이편한세상,02,서울특별시 구로구 신도림로 56-13,37.508392842,126.88219791,7,단독,11,,,Y,2,2
885,래미안밤섬리베뉴1아파트,02,서울특별시 마포구 독막로20나길 22,37.546347744,126.92606350,7,단독,11,,,Y,2,2
886,래미안밤섬리베뉴1아파트,02,서울특별시 마포구 독막로20나길 22,37.546347744,126.92606350,7,단독,11,,,Y,2,2
887,래미안밤섬리베뉴1아파트,02,서울특별시 마포구 독막로20나길 22,37.546347744,126.92606350,7,단독,11,,,Y,2,2
888,래미안밤섬리베뉴1아파트,02,서울특별시 마포구 독막로20나길 22,37.546347744,126.92606350,7,단독,11,,,Y,2,2
889,래미안밤섬리베뉴1아파트,02,서울특별시 마포구 독막로20나길 22,37.546347744,126.92606350,7,단독,11,,,Y,2,2
890,북한산두산위브2차,02,서울특별시 서대문구 홍은중앙로1길 100,37.599647007,126.94422175,7,단독,11,,,Y,2,2
891,북한산두산위브2차,02,서울특별시 서대문구 홍은중앙로1길 100,37.599647007,126.94422175,7,단독,11,,,Y,2,2
892,북한산두산위브2차,02,서울특별시 서대문구 홍은중앙로1길 100,37.599647007,126.94422175,7,단독,11,,,Y,2,2
893,창동건영캐스빌,02,서울특별시 도봉구 우이천로20길 7,37.640957018,127.03407290,7,단독,11,,,Y,2,2
894,창동건영캐스빌,02,서울특별시 도봉구 우이천로20길 7,37.640957018,127.03407290,7,단독,11,,,Y,2,2
895,창동건영캐스빌,02,서울특별시 도봉구 우이천로20길 7,37.640957018,127.03407290,7,단독,11,,,Y,2,2
896,형인허브빌,02,서울특별시 강동구 상암로49길 13,37.547150477,127.14464389,7,단독,11,,,Y,2,2
897,형인허브빌,02,서울특별시 강동구 상암로49길 13,37.547150477,127.14464389,7,단독,11,,,Y,2,2
898,형인허브빌,02,서울특별시 강동구 상암로49길 13,37.547150477,127.14464389,7,단독,11,,,Y,2,2
899,은평뉴타운제각말5단지제2,02,서울특별시 은평구 연서로48길 11,37.6376117,126.9363968,7,단독,11,,,Y,2,2
900,은평뉴타운제각말5단지제2,02,서울특별시 은평구 연서로48길 11,37.6376117,126.9363968,7,단독,11,,,Y,3,3
901,은평뉴타운제각말5단지제2,02,서울특별시 은평구 연서로48길 11,37.6376117,126.9363968,7,단독,11,,,Y,2,2
902,래미안남가좌2차,02,서울특별시 서대문구 수색로6길 43,37.572212982,126.91357441,7,단독,11,,,Y,2,2
903,래미안남가좌2차,02,서울특별시 서대문구 수색로6길 43,37.572212982,126.91357441,7,단독,11,,,Y,2,2
904,마포자이2차아파트,02,서울특별시 마포구 서강대길 40,37.549580306,126.94142729,7,단독,11,,,Y,2,2
905,마포자이2차아파트,02,서울특별시 마포구 서강대길 40,37.549580306,126.94142729,7,단독,11,,,Y,2,2
906,마포자이2차아파트,02,서울특별시 마포구 서강대길 40,37.549580306,126.94142729,7,단독,11,,,Y,3,3
907,마포자이2차아파트,02,서울특별시 마포구 서강대길 40,37.549580306,126.94142729,7,단독,11,,,Y,2,2
908,마포자이2차아파트,02,서울특별시 마포구 서강대길 40,37.549580306,126.94142729,7,단독,11,,,Y,2,2
909,마포자이2차아파트,02,서울특별시 마포구 서강대길 40,37.549580306,126.94142729,7,단독,11,,,Y,2,2
910,마포자이2차아파트,02,서울특별시 마포구 서강대길 40,37.549580306,126.94142729,7,단독,11,,,Y,2,2
911,마포자이2차아파트,02,서울특별시 마포구 서강대길 40,37.549580306,126.94142729,7,단독,11,,,Y,3,3
912,마포자이2차아파트,02,서울특별시 마포구 서강대길 40,37.549580306,126.94142729,7,단독,11,,,Y,2,2
913,고덕롯데캐슬베네루체,02,서울특별시 강동구 상암로79길 88,37.549134779,127.16610085,7,단독,11,,,Y,2,2
914,고덕롯데캐슬베네루체,02,서울특별시 강동구 상암로79길 88,37.549134779,127.16610085,7,단독,11,,,Y,2,2
915,고덕롯데캐슬베네루체,02,서울특별시 강동구 상암로79길 88,37.549134779,127.16610085,7,단독,11,,,Y,2,2
916,고덕롯데캐슬베네루체,02,서울특별시 강동구 상암로79길 88,37.549134779,127.16610085,7,단독,11,,,Y,2,2
917,고덕롯데캐슬베네루체,02,서울특별시 강동구 상암로79길 88,37.549134779,127.16610085,7,단독,11,,,Y,2,2
918,고덕롯데캐슬베네루체,02,서울특별시 강동구 상암로79길 88,37.549134779,127.16610085,7,단독,11,,,Y,2,2
919,고덕롯데캐슬베네루체,02,서울특별시 강동구 상암로79길 88,37.549134779,127.16610085,7,단독,11,,,Y,2,2
920,고덕롯데캐슬베네루체,02,서울특별시 강동구 상암로79길 88,37.549134779,127.16610085,7,단독,11,,,Y,2,2
921,고덕롯데캐슬베네루체,02,서울특별시 강동구 상암로79길 88,37.549134779,127.16610085,7,단독,11,,,Y,2,2
922,극동상록수,02,서울특별시 강서구 공항대로71길 31,37.548784939,126.87253281,7,단독,11,,,Y,2,2
923,극동상록수,02,서울특별시 강서구 공항대로71길 31,37.548784939,126.87253281,7,단독,11,,,Y,3,3
924,극동상록수,02,서울특별시 강서구 공항대로71길 31,37.548784939,126.87253281,7,단독,11,,,Y,2,2
925,극동상록수,02,서울특별시 강서구 공항대로71길 31,37.548784939,126.87253281,7,단독,11,,,Y,2,2
926,극동상록수,02,서울특별시 강서구 공항대로71길 31,37.548784939,126.87253281,7,단독,11,,,Y,2,2
927,디엠씨에코자이,02,서울특별시 서대문구 거북골로 84,37.576845476,126.91974985,7,단독,11,,,Y,2,2
928,디엠씨에코자이,02,서울특별시 서대문구 거북골로 84,37.576845476,126.91974985,7,단독,11,,,Y,2,2
929,디엠씨에코자이,02,서울특별시 서대문구 거북골로 84,37.576845476,126.91974985,7,단독,11,,,Y,2,2
930,디엠씨에코자이,02,서울특별시 서대문구 거북골로 84,37.576845476,126.91974985,7,단독,11,,,Y,2,2
931,디엠씨에코자이,02,서울특별시 서대문구 거북골로 84,37.576845476,126.91974985,7,단독,11,,,Y,2,2
932,디엠씨에코자이,02,서울특별시 서대문구 거북골로 84,37.576845476,126.91974985,7,단독,11,,,Y,2,2
933,디엠씨에코자이,02,서울특별시 서대문구 거북골로 84,37.576845476,126.91974985,7,단독,11,,,Y,2,2
934,디엠씨에코자이,02,서울특별시 서대문구 거북골로 84,37.576845476,126.91974985,7,단독,11,,,Y,2,2
935,디엠씨에코자이,02,서울특별시 서대문구 거북골로 84,37.576845476,126.91974985,7,단독,11,,,Y,2,2
936,디엠씨에코자이,02,서울특별시 서대문구 거북골로 84,37.576845476,126.91974985,7,단독,11,,,Y,2,2
937,디엠씨에코자이,02,서울특별시 서대문구 거북골로 84,37.576845476,126.91974985,7,단독,11,,,Y,2,2
938,디엠씨에코자이,02,서울특별시 서대문구 거북골로 84,37.576845476,126.91974985,7,단독,11,,,Y,2,2
939,항동하버라인2단지,02,서울특별시 구로구 연동로 234,37.481905515,126.82152825,7,단독,11,,,Y,2,2
940,항동하버라인2단지,02,서울특별시 구로구 연동로 234,37.481905515,126.82152825,7,단독,11,,,Y,2,2
941,항동하버라인2단지,02,서울특별시 구로구 연동로 234,37.481905515,126.82152825,7,단독,11,,,Y,2,2
942,항동하버라인2단지,02,서울특별시 구로구 연동로 234,37.481905515,126.82152825,7,단독,11,,,Y,2,2
943,항동하버라인2단지,02,서울특별시 구로구 연동로 234,37.481905515,126.82152825,7,단독,11,,,Y,2,2
944,항동하버라인2단지,02,서울특별시 구로구 연동로 234,37.481905515,126.82152825,7,단독,11,,,Y,3,3
945,항동하버라인2단지,02,서울특별시 구로구 연동로 234,37.481905515,126.82152825,7,단독,11,,,Y,2,2
946,항동하버라인2단지,02,서울특별시 구로구 연동로 234,37.481905515,126.82152825,7,단독,11,,,Y,2,2
947,항동하버라인2단지,02,서울특별시 구로구 연동로 234,37.481905515,126.82152825,7,단독,11,,,Y,2,2
948,항동하버라인2단지,02,서울특별시 구로구 연동로 234,37.481905515,126.82152825,7,단독,11,,,Y,2,2
949,천호동아하이빌,02,서울특별시 강동구 구천면로 278,37.544695743,127.13327502,7,단독,11,,,Y,2,2
950,천호동아하이빌,02,서울특별시 강동구 구천면로 278,37.544695743,127.13327502,7,단독,11,,,Y,2,2
951,천호동아하이빌,02,서울특별시 강동구 구천면로 278,37.544695743,127.13327502,7,단독,11,,,Y,2,2
952,천호동아하이빌,02,서울특별시 강동구 구천면로 278,37.544695743,127.13327502,7,단독,11,,,Y,3,3
953,천호동아하이빌,02,서울특별시 강동구 구천면로 278,37.544695743,127.13327502,7,단독,11,,,Y,2,2
954,천호동아하이빌,02,서울특별시 강동구 구천면로 278,37.544695743,127.13327502,7,단독,11,,,Y,3,3
955,천호동아하이빌,02,서울특별시 강동구 구천면로 278,37.544695743,127.13327502,7,단독,11,,,Y,2,2
956,천호동아하이빌,02,서울특별시 강동구 구천면로 278,37.544695743,127.13327502,7,단독,11,,,Y,2,2
957,천호동아하이빌,02,서울특별시 강동구 구천면로 278,37.544695743,127.13327502,7,단독,11,,,Y,2,2
958,신림신도브래뉴,02,서울특별시 관악구 조원로16길 7,37.483836596,126.91096837,7,단독,11,,,Y,2,2
959,신림신도브래뉴,02,서울특별시 관악구 조원로16길 7,37.483836596,126.91096837,7,단독,11,,,Y,2,2
960,수락산늘푸른아파트,02,서울특별시 노원구 동일로242나길 20,37.676485650,127.05662216,7,단독,11,,,Y,3,3
961,수락산늘푸른아파트,02,서울특별시 노원구 동일로242나길 20,37.676485650,127.05662216,7,단독,11,,,Y,2,2
962,녹번대림아파트,02,서울특별시 은평구 통일로 586,37.599335030,126.93708583,7,단독,11,,,Y,2,2
963,녹번대림아파트,02,서울특별시 은평구 통일로 586,37.599335030,126.93708583,7,단독,11,,,Y,2,2
964,녹번대림아파트,02,서울특별시 은평구 통일로 586,37.599335030,126.93708583,7,단독,11,,,Y,2,2
965,녹번대림아파트,02,서울특별시 은평구 통일로 586,37.599335030,126.93708583,7,단독,11,,,Y,2,2
966,녹번대림아파트,02,서울특별시 은평구 통일로 586,37.599335030,126.93708583,7,단독,11,,,Y,3,3
967,덕영드림아파트,02,서울특별시 구로구 구로중앙로34길 17,37.500847800,126.88405339,7,단독,11,,,Y,2,2
968,덕영드림아파트,02,서울특별시 구로구 구로중앙로34길 17,37.500847800,126.88405339,7,단독,11,,,Y,2,2
969,덕영드림아파트,02,서울특별시 구로구 구로중앙로34길 17,37.500847800,126.88405339,7,단독,11,,,Y,2,2
970,시흥벽산아파트,02,서울특별시 금천구 금하로 793,37.449898125,126.91775903,7,단독,11,,,Y,2,2
971,시흥벽산아파트,02,서울특별시 금천구 금하로 793,37.449898125,126.91775903,7,단독,11,,,Y,2,2
972,시흥벽산아파트,02,서울특별시 금천구 금하로 793,37.449898125,126.91775903,7,단독,11,,,Y,2,2
973,시흥벽산아파트,02,서울특별시 금천구 금하로 793,37.449898125,126.91775903,7,단독,11,,,Y,2,2
974,시흥벽산아파트,02,서울특별시 금천구 금하로 793,37.449898125,126.91775903,7,단독,11,,,Y,2,2
975,시흥벽산아파트,02,서울특별시 금천구 금하로 793,37.449898125,126.91775903,7,단독,11,,,Y,2,2
976,시흥벽산아파트,02,서울특별시 금천구 금하로 793,37.449898125,126.91775903,7,단독,11,,,Y,2,2
977,시흥벽산아파트,02,서울특별시 금천구 금하로 793,37.449898125,126.91775903,7,단독,11,,,Y,2,2
978,시흥벽산아파트,02,서울특별시 금천구 금하로 793,37.449898125,126.91775903,7,단독,11,,,Y,2,2
979,시흥벽산아파트,02,서울특별시 금천구 금하로 793,37.449898125,126.91775903,7,단독,11,,,Y,2,2
980,시흥벽산아파트,02,서울특별시 금천구 금하로 793,37.449898125,126.91775903,7,단독,11,,,Y,2,2
981,시흥벽산아파트,02,서울특별시 금천구 금하로 793,37.449898125,126.91775903,7,단독,11,,,Y,2,2
982,시흥벽산아파트,02,서울특별시 금천구 금하로 793,37.449898125,126.91775903,7,단독,11,,,Y,2,2
983,시흥벽산아파트,02,서울특별시 금천구 금하로 793,37.449898125,126.91775903,7,단독,11,,,Y,2,2
984,시흥벽산아파트,02,서울특별시 금천구 금하로 793,37.449898125,126.91775903,7,단독,11,,,Y,2,2
985,시흥벽산아파트,02,서울특별시 금천구 금하로 793,37.449898125,126.91775903,7,단독,11,,,Y,2,2
986,시흥벽산아파트,02,서울특별시 금천구 금하로 793,37.449898125,126.91775903,7,단독,11,,,Y,2,2
987,시흥벽산아파트,02,서울특별시 금천구 금하로 793,37.449898125,126.91775903,7,단독,11,,,Y,2,2
988,시흥벽산아파트,02,서울특별시 금천구 금하로 793,37.449898125,126.91775903,7,단독,11,,,Y,2,2
989,시흥벽산아파트,02,서울특별시 금천구 금하로 793,37.449898125,126.91775903,7,단독,11,,,Y,2,2
990,시흥벽산아파트,02,서울특별시 금천구 금하로 793,37.449898125,126.91775903,7,단독,11,,,Y,2,2
991,시흥벽산아파트,02,서울특별시 금천구 금하로 793,37.449898125,126.91775903,7,단독,11,,,Y,2,2
992,시흥벽산아파트,02,서울특별시 금천구 금하로 793,37.449898125,126.91775903,7,단독,11,,,Y,2,2
993,시흥벽산아파트,02,서울특별시 금천구 금하로 793,37.449898125,126.91775903,7,단독,11,,,Y,2,2
994,시흥벽산아파트,02,서울특별시 금천구 금하로 793,37.449898125,126.91775903,7,단독,11,,,Y,2,2
995,시흥벽산아파트,02,서울특별시 금천구 금하로 793,37.449898125,126.91775903,7,단독,11,,,Y,2,2
996,시흥벽산아파트,02,서울특별시 금천구 금하로 793,37.449898125,126.91775903,7,단독,11,,,Y,2,2
997,시흥벽산아파트,02,서울특별시 금천구 금하로 793,37.449898125,126.91775903,7,단독,11,,,Y,2,2
998,시흥벽산아파트,02,서울특별시 금천구 금하로 793,37.449898125,126.91775903,7,단독,11,,,Y,2,2
999,래미안길음2차,02,서울특별시 성북구 길음로 74,37.609084043,127.02052940,7,단독,11,,,Y,2,2
1000,래미안길음2차,02,서울특별시 성북구 길음로 74,37.609084043,127.02052940,7,단독,11,,,Y,2,2
1001,래미안길음2차,02,서울특별시 성북구 길음로 74,37.609084043,127.02052940,7,단독,11,,,Y,2,2
1002,래미안길음2차,02,서울특별시 성북구 길음로 74,37.609084043,127.02052940,7,단독,11,,,Y,2,2
1003,래미안길음2차,02,서울특별시 성북구 길음로 74,37.609084043,127.02052940,7,단독,11,,,Y,2,2
1004,래미안길음2차,02,서울특별시 성북구 길음로 74,37.609084043,127.02052940,7,단독,11,,,Y,2,2
1005,래미안길음2차,02,서울특별시 성북구 길음로 74,37.609084043,127.02052940,7,단독,11,,,Y,2,2
1006,래미안길음2차,02,서울특별시 성북구 길음로 74,37.609084043,127.02052940,7,단독,11,,,Y,2,2
1007,래미안길음2차,02,서울특별시 성북구 길음로 74,37.609084043,127.02052940,7,단독,11,,,Y,2,2
1008,래미안길음2차,02,서울특별시 성북구 길음로 74,37.609084043,127.02052940,7,단독,11,,,Y,2,2
1009,래미안길음2차,02,서울특별시 성북구 길음로 74,37.609084043,127.02052940,7,단독,11,,,Y,2,2
1010,래미안길음2차,02,서울특별시 성북구 길음로 74,37.609084043,127.02052940,7,단독,11,,,Y,2,2
1011,래미안솔베뉴,02,서울특별시 강동구 양재대로 1650,37.552794588,127.14441821,7,단독,11,,,Y,2,2
1012,래미안솔베뉴,02,서울특별시 강동구 양재대로 1650,37.552794588,127.14441821,7,단독,11,,,Y,2,2
1013,래미안솔베뉴,02,서울특별시 강동구 양재대로 1650,37.552794588,127.14441821,7,단독,11,,,Y,2,2
1014,래미안솔베뉴,02,서울특별시 강동구 양재대로 1650,37.552794588,127.14441821,7,단독,11,,,Y,2,2
1015,래미안솔베뉴,02,서울특별시 강동구 양재대로 1650,37.552794588,127.14441821,7,단독,11,,,Y,2,2
1016,래미안솔베뉴,02,서울특별시 강동구 양재대로 1650,37.552794588,127.14441821,7,단독,11,,,Y,2,2
1017,래미안솔베뉴,02,서울특별시 강동구 양재대로 1650,37.552794588,127.14441821,7,단독,11,,,Y,2,2
1018,래미안솔베뉴,02,서울특별시 강동구 양재대로 1650,37.552794588,127.14441821,7,단독,11,,,Y,2,2
1019,래미안솔베뉴,02,서울특별시 강동구 양재대로 1650,37.552794588,127.14441821,7,단독,11,,,Y,2,2
1020,래미안솔베뉴,02,서울특별시 강동구 양재대로 1650,37.552794588,127.14441821,7,단독,11,,,Y,2,2
1021,강동역신동아파밀리에,02,서울특별시 강동구 천호대로 1089,37.535991227,127.13293899,7,단독,11,,,Y,2,2
1022,강동역신동아파밀리에,02,서울특별시 강동구 천호대로 1089,37.535991227,127.13293899,7,단독,11,,,Y,2,2
1023,강동역신동아파밀리에,02,서울특별시 강동구 천호대로 1089,37.535991227,127.13293899,7,단독,11,,,Y,2,2
1024,강동역신동아파밀리에,02,서울특별시 강동구 천호대로 1089,37.535991227,127.13293899,7,단독,11,,,Y,2,2
1025,강남엘에이치1단지(강남LH1단지),02,서울특별시 강남구 헌릉로571길 20,37.466992436,127.10193635,7,단독,11,,,Y,2,2
1026,강남엘에이치1단지(강남LH1단지),02,서울특별시 강남구 헌릉로571길 20,37.466992436,127.10193635,7,단독,11,,,Y,2,2
1027,강남엘에이치1단지(강남LH1단지),02,서울특별시 강남구 헌릉로571길 20,37.466992436,127.10193635,7,단독,11,,,Y,2,2
1028,강남엘에이치1단지(강남LH1단지),02,서울특별시 강남구 헌릉로571길 20,37.466992436,127.10193635,7,단독,11,,,Y,2,2
1029,강남엘에이치1단지(강남LH1단지),02,서울특별시 강남구 헌릉로571길 20,37.466992436,127.10193635,7,단독,11,,,Y,2,2
1030,강남엘에이치1단지(강남LH1단지),02,서울특별시 강남구 헌릉로571길 20,37.466992436,127.10193635,7,단독,11,,,Y,2,2
1031,강남엘에이치1단지(강남LH1단지),02,서울특별시 강남구 헌릉로571길 20,37.466992436,127.10193635,7,단독,11,,,Y,2,2
1032,강남엘에이치1단지(강남LH1단지),02,서울특별시 강남구 헌릉로571길 20,37.466992436,127.10193635,7,단독,11,,,Y,2,2
1033,강남엘에이치1단지(강남LH1단지),02,서울특별시 강남구 헌릉로571길 20,37.466992436,127.10193635,7,단독,11,,,Y,2,2
1034,강남엘에이치1단지(강남LH1단지),02,서울특별시 강남구 헌릉로571길 20,37.466992436,127.10193635,7,단독,11,,,Y,2,2
1035,강남엘에이치1단지(강남LH1단지),02,서울특별시 강남구 헌릉로571길 20,37.466992436,127.10193635,7,단독,11,,,Y,2,2
1036,강남엘에이치1단지(강남LH1단지),02,서울특별시 강남구 헌릉로571길 20,37.466992436,127.10193635,7,단독,11,,,Y,2,2
1037,강남엘에이치1단지(강남LH1단지),02,서울특별시 강남구 헌릉로571길 20,37.466992436,127.10193635,7,단독,11,,,Y,2,2
1038,강남엘에이치1단지(강남LH1단지),02,서울특별시 강남구 헌릉로571길 20,37.466992436,127.10193635,7,단독,11,,,Y,2,2
1039,강남엘에이치1단지(강남LH1단지),02,서울특별시 강남구 헌릉로571길 20,37.466992436,127.10193635,7,단독,11,,,Y,2,2
1040,창동대우그린,02,서울특별시 도봉구 덕릉로 371,37.645911627,127.05025413,7,단독,11,,,Y,2,2
1041,창동대우그린,02,서울특별시 도봉구 덕릉로 371,37.645911627,127.05025413,7,단독,11,,,Y,2,2
1042,창동대우그린,02,서울특별시 도봉구 덕릉로 371,37.645911627,127.05025413,7,단독,11,,,Y,2,2
1043,창동대우그린,02,서울특별시 도봉구 덕릉로 371,37.645911627,127.05025413,7,단독,11,,,Y,2,2
1044,래미안밤섬리베뉴2,02,서울특별시 마포구 독막로20나길 21,37.546425547,126.92672644,7,단독,11,,,Y,2,2
1045,래미안밤섬리베뉴2,02,서울특별시 마포구 독막로20나길 21,37.546425547,126.92672644,7,단독,11,,,Y,2,2
1046,래미안밤섬리베뉴2,02,서울특별시 마포구 독막로20나길 21,37.546425547,126.92672644,7,단독,11,,,Y,2,2
1047,래미안밤섬리베뉴2,02,서울특별시 마포구 독막로20나길 21,37.546425547,126.92672644,7,단독,11,,,Y,2,2
1048,래미안밤섬리베뉴2,02,서울특별시 마포구 독막로20나길 21,37.546425547,126.92672644,7,단독,11,,,Y,2,2
1049,래미안밤섬리베뉴2,02,서울특별시 마포구 독막로20나길 21,37.546425547,126.92672644,7,단독,11,,,Y,2,2
1050,래미안밤섬리베뉴2,02,서울특별시 마포구 독막로20나길 21,37.546425547,126.92672644,7,단독,11,,,Y,2,2
1051,상암휴먼시아1단지,02,서울특별시 마포구 월드컵북로43길 11,37.574543387,126.89537148,7,단독,11,,,Y,2,2
1052,상암휴먼시아1단지,02,서울특별시 마포구 월드컵북로43길 11,37.574543387,126.89537148,7,단독,11,,,Y,2,2
1053,개봉두산아파트(INO),02,서울특별시 구로구 남부순환로95길 88,37.495325127,126.8517305,7,동시,11,,,Y,2,2
1054,개봉두산아파트(INO),02,서울특별시 구로구 남부순환로95길 88,37.495325127,126.8517305,7,동시,11,,,Y,2,2
1055,개봉두산아파트(INO),02,서울특별시 구로구 남부순환로95길 88,37.495325127,126.8517305,7,단독,11,,,Y,2,2
1056,개봉두산아파트(INO),02,서울특별시 구로구 남부순환로95길 88,37.495325127,126.8517305,7,동시,11,,,Y,2,2
1057,개봉두산아파트(INO),02,서울특별시 구로구 남부순환로95길 88,37.495325127,126.8517305,7,동시,11,,,Y,2,2
1058,호텔더디자이너스리즈강남프리미어(ino),02,서울특별시 강남구 봉은사로 113,37.5052667,127.0258786,7,단독,11,,,Y,2,2
1059,한강현대하이엘(ino),02,서울특별시 용산구 새창로 213-12,37.530489483,126.96802809,7,동시,11,,,Y,2,2
1060,한강현대하이엘(ino),02,서울특별시 용산구 새창로 213-12,37.530489483,126.96802809,7,동시,11,,,Y,2,2
1061,에이스하이엔드타워6차(INO),02,서울특별시 금천구 벚꽃로 234,37.4759973,126.8861324,7,단독,11,,,N,9,9
1062,EV충전소 SK여의도주유소 (ev Most),06,서울특별시 영등포구 의사당대로 154,37.517737,126.927370,,,11,,,Y,1,1
1063,EV충전소 SK영등포행복주유소 (ev Most),04,서울특별시 영등포구 선유로 114,37.524004,126.890839,,,11,,,Y,1,1
1064,EV충전소 SK신월남부주유소 (ev Most),06,서울특별시 양천구 남부순환로 553,37.519571,126.838732,,,11,,,Y,2,2
1065,EV충전소 SK중랑교셀프주유소 (ev Most),06,서울특별시 중랑구 망우로 229,37.594717,127.077906,,,11,,,Y,1,1
1066,서울장애인종합복지관,02,서울특별시 강동구 고덕로 201,37.5562072,127.1485437,7,단독,11,,,Y,2,2
1067,서울장애인종합복지관,02,서울특별시 강동구 고덕로 201,37.5562072,127.1485437,7,단독,11,,,Y,2,2
1068,관악위버폴리스,02,서울특별시 관악구 관악로 195,37.4825641,126.9530968,7,단독,11,,,Y,2,2
1069,관악위버폴리스,02,서울특별시 관악구 관악로 195,37.4825641,126.9530968,7,단독,11,,,Y,3,3
1070,관악위버폴리스,02,서울특별시 관악구 관악로 195,37.4825641,126.9530968,7,단독,11,,,Y,2,2
1071,(주)농협유통창동농산물종합,02,서울특별시 도봉구 마들로11길 20,37.6550378,127.0518028,7,단독,11,,,Y,2,2
1072,(주)농협유통창동농산물종합,02,서울특별시 도봉구 마들로11길 20,37.6550378,127.0518028,7,단독,11,,,Y,2,2
1073,(주)농협유통창동농산물종합,02,서울특별시 도봉구 마들로11길 20,37.6550378,127.0518028,7,단독,11,,,Y,2,2
1074,(주)농협유통창동농산물종합,02,서울특별시 도봉구 마들로11길 20,37.6550378,127.0518028,7,단독,11,,,Y,2,2
1075,(주)농협유통창동농산물종합,02,서울특별시 도봉구 마들로11길 20,37.6550378,127.0518028,7,단독,11,,,Y,2,2
1076,(주)농협유통창동농산물종합,02,서울특별시 도봉구 마들로11길 20,37.6550378,127.0518028,7,단독,11,,,Y,2,2
1077,(주)농협유통창동농산물종합,02,서울특별시 도봉구 마들로11길 20,37.6550378,127.0518028,7,단독,11,,,Y,2,2
1078,(주)농협유통창동농산물종합,02,서울특별시 도봉구 마들로11길 20,37.6550378,127.0518028,7,단독,11,,,Y,2,2
1079,(주)농협유통창동농산물종합,02,서울특별시 도봉구 마들로11길 20,37.6550378,127.0518028,7,단독,11,,,Y,2,2
1080,(주)농협유통창동농산물종합,02,서울특별시 도봉구 마들로11길 20,37.6550378,127.0518028,7,단독,11,,,Y,2,2
1081,목동현대파크빌1(지하2_3층,02,서울특별시 양천구 목동동로 391,37.5358738,126.8802712,7,단독,11,,,Y,3,3
1082,목동현대파크빌1(지하2_3층,02,서울특별시 양천구 목동동로 391,37.5358738,126.8802712,7,단독,11,,,Y,2,2
1083,목동현대파크빌1(지하2_3층,02,서울특별시 양천구 목동동로 391,37.5358738,126.8802712,7,단독,11,,,Y,2,2
1084,서울 캐릭터그린빌관리단,02,서울특별시 관악구 보라매로5가길 7,37.4918481,126.9251744,7,단독,11,,,Y,2,2
1085,서울 캐릭터그린빌관리단,02,서울특별시 관악구 보라매로5가길 7,37.4918481,126.9251744,7,단독,11,,,Y,2,2
1086,서울 캐릭터그린빌관리단,02,서울특별시 관악구 보라매로5가길 7,37.4918481,126.9251744,7,단독,11,,,Y,2,2
1087,서울 캐릭터그린빌관리단,02,서울특별시 관악구 보라매로5가길 7,37.4918481,126.9251744,7,단독,11,,,Y,2,2
1088,서울 광림교회,02,서울특별시 강남구 논현로163길 33,37.5238944,127.0255799,7,단독,11,,,Y,2,2
1089,서울 광림교회,02,서울특별시 강남구 논현로163길 33,37.5238944,127.0255799,7,단독,11,,,Y,2,2
1090,서울 광림교회,02,서울특별시 강남구 논현로163길 33,37.5238944,127.0255799,7,단독,11,,,Y,2,2
1091,서울 광림교회,02,서울특별시 강남구 논현로163길 33,37.5238944,127.0255799,7,단독,11,,,Y,2,2
1092,서울 광림교회,02,서울특별시 강남구 논현로163길 33,37.5238944,127.0255799,7,단독,11,,,Y,2,2
1093,서울 광림교회,02,서울특별시 강남구 논현로163길 33,37.5238944,127.0255799,7,단독,11,,,Y,2,2
1094,서울 광림교회,02,서울특별시 강남구 논현로163길 33,37.5238944,127.0255799,7,단독,11,,,Y,2,2
1095,부영그린타운1차1(지하5층),02,서울특별시 양천구 목동동로 393,37.5361835,126.8800535,7,단독,11,,,Y,2,2
1096,풍림아이원3차,02,서울특별시 강남구 영동대로72길 10,37.504658,127.0667903,7,단독,11,,,Y,2,2
1097,풍림아이원3차,02,서울특별시 강남구 영동대로72길 10,37.504658,127.0667903,7,단독,11,,,Y,2,2
1098,성도빌딩,02,서울특별시 강남구 도산대로 207,37.5204265,127.0290764,7,단독,11,,,N,2,2
1099,도봉 덕성여자대학교,02,서울특별시 도봉구 삼양로144길 33,37.6495091,127.0163952,7,단독,11,,,N,2,2
1100,도봉 덕성여자대학교,02,서울특별시 도봉구 삼양로144길 33,37.6495091,127.0163952,7,단독,11,,,N,3,3
1101,도봉 덕성여자대학교,02,서울특별시 도봉구 삼양로144길 33,37.6495091,127.0163952,7,단독,11,,,N,2,2
1102,도봉 덕성여자대학교,02,서울특별시 도봉구 삼양로144길 33,37.6495091,127.0163952,7,단독,11,,,N,2,2
1103,역삼아르누보시티,02,서울특별시 강남구 언주로 506,37.5034175,127.0428583,7,단독,11,,,N,2,2
1104,역삼아르누보시티,02,서울특별시 강남구 언주로 506,37.5034175,127.0428583,7,단독,11,,,N,2,2
1105,서울 래미안장안아파트,02,서울특별시 동대문구 장한로14길 81,37.5668181,127.0721803,7,단독,11,,,Y,2,2
1106,서울 래미안장안아파트,02,서울특별시 동대문구 장한로14길 81,37.5668181,127.0721803,7,단독,11,,,Y,3,3
1107,서울 래미안장안아파트,02,서울특별시 동대문구 장한로14길 81,37.5668181,127.0721803,7,단독,11,,,Y,2,2
1108,서울 래미안장안아파트,02,서울특별시 동대문구 장한로14길 81,37.5668181,127.0721803,7,단독,11,,,Y,2,2
1109,서울 래미안장안아파트,02,서울특별시 동대문구 장한로14길 81,37.5668181,127.0721803,7,단독,11,,,Y,2,2
1110,서울 래미안장안아파트,02,서울특별시 동대문구 장한로14길 81,37.5668181,127.0721803,7,단독,11,,,Y,2,2
1111,서울 래미안장안아파트,02,서울특별시 동대문구 장한로14길 81,37.5668181,127.0721803,7,단독,11,,,Y,2,2
1112,서울 래미안장안아파트,02,서울특별시 동대문구 장한로14길 81,37.5668181,127.0721803,7,단독,11,,,Y,2,2
1113,서울 조은숙(렌탈),02,서울특별시 은평구 응암로25길 12-7,37.5957406,126.9171063,7,단독,11,,,Y,9,9
1114,서울 광운대학교,02,서울특별시 노원구 광운로 20,37.6193203,127.058338,7,단독,11,,,N,2,2
1115,서울 광운대학교,02,서울특별시 노원구 광운로 20,37.6193203,127.058338,7,단독,11,,,N,2,2
1116,서울 광운대학교,02,서울특별시 노원구 광운로 20,37.6193203,127.058338,7,단독,11,,,N,2,2
1117,서울 광운대학교,02,서울특별시 노원구 광운로 20,37.6193203,127.058338,7,단독,11,,,N,2,2
1118,서울 광운대학교,02,서울특별시 노원구 광운로 20,37.6193203,127.058338,7,단독,11,,,N,2,2
1119,서울 광운대학교,02,서울특별시 노원구 광운로 20,37.6193203,127.058338,7,단독,11,,,N,2,2
1120,서울 진광교회,02,서울특별시 중랑구 사가정로41길 34,37.5826433,127.0845202,7,단독,11,,,Y,2,2
1121,서울 진광교회,02,서울특별시 중랑구 사가정로41길 34,37.5826433,127.0845202,7,단독,11,,,Y,2,2
1122,서울 영남중공업,02,서울특별시 금천구 시흥대로153길 26,37.4778275,126.896922,7,단독,11,,,Y,2,2
1123,서울 영남중공업,02,서울특별시 금천구 시흥대로153길 26,37.4778275,126.896922,7,단독,11,,,Y,2,2
1124,금천롯데캐슬골드파크2차오피스텔,02,서울특별시 금천구 벚꽃로 30,37.4582229,126.8937104,7,단독,11,,,Y,2,2
1125,금천롯데캐슬골드파크2차오피스텔,02,서울특별시 금천구 벚꽃로 30,37.4582229,126.8937104,7,단독,11,,,Y,2,2
1126,금천롯데캐슬골드파크2차오피스텔,02,서울특별시 금천구 벚꽃로 30,37.4582229,126.8937104,7,단독,11,,,Y,2,2
1127,금천롯데캐슬골드파크2차오피스텔,02,서울특별시 금천구 벚꽃로 30,37.4582229,126.8937104,7,단독,11,,,Y,2,2
1128,금천롯데캐슬골드파크2차오피스텔,02,서울특별시 금천구 벚꽃로 30,37.4582229,126.8937104,7,단독,11,,,Y,2,2
1129,금천롯데캐슬골드파크2차오피스텔,02,서울특별시 금천구 벚꽃로 30,37.4582229,126.8937104,7,단독,11,,,Y,2,2
1130,서울 포스코트아파트,02,서울특별시 강남구 남부순환로381길 15,37.4879363,127.0476656,7,단독,11,,,Y,2,2
1131,서울 포스코트아파트,02,서울특별시 강남구 남부순환로381길 15,37.4879363,127.0476656,7,단독,11,,,Y,2,2
1132,서울 포스코트아파트,02,서울특별시 강남구 남부순환로381길 15,37.4879363,127.0476656,7,단독,11,,,Y,2,2
1133,서울 포스코트아파트,02,서울특별시 강남구 남부순환로381길 15,37.4879363,127.0476656,7,단독,11,,,Y,2,2
1134,건와빌딩,02,서울특별시 강서구 마곡동로 56,37.5599779,126.8338034,7,단독,11,,,N,2,2
1135,건와빌딩,02,서울특별시 강서구 마곡동로 56,37.5599779,126.8338034,7,단독,11,,,N,2,2
1136,건와빌딩,02,서울특별시 강서구 마곡동로 56,37.5599779,126.8338034,7,단독,11,,,N,2,2
1137,건와빌딩,02,서울특별시 강서구 마곡동로 56,37.5599779,126.8338034,7,단독,11,,,N,2,2
1138,서울 명지페르마타오피스텔,02,서울특별시 영등포구 선유서로 15,37.5172062,126.8837867,7,단독,11,,,N,2,2
1139,서울 명지페르마타오피스텔,02,서울특별시 영등포구 선유서로 15,37.5172062,126.8837867,7,단독,11,,,N,2,2
1140,반포자이아파트5(112동),02,서울특별시 서초구 신반포로 270,37.5073684,127.0131875,7,단독,11,,,Y,2,2
1141,반포자이아파트5(112동),02,서울특별시 서초구 신반포로 270,37.5073684,127.0131875,7,단독,11,,,Y,3,3
1142,반포자이아파트5(112동),02,서울특별시 서초구 신반포로 270,37.5073684,127.0131875,7,단독,11,,,Y,3,3
1143,반포자이아파트4(111-112동),02,서울특별시 서초구 신반포로 270,37.5072333,127.0127803,7,단독,11,,,Y,2,2
1144,반포자이아파트4(111-112동),02,서울특별시 서초구 신반포로 270,37.5072333,127.0127803,7,단독,11,,,Y,2,2
1145,반포자이아파트4(111-112동),02,서울특별시 서초구 신반포로 270,37.5072333,127.0127803,7,단독,11,,,Y,2,2
1146,반포자이아파트7(118동),02,서울특별시 서초구 신반포로 270,37.5083592,127.0156194,7,단독,11,,,Y,2,2
1147,반포자이아파트7(118동),02,서울특별시 서초구 신반포로 270,37.5083592,127.0156194,7,단독,11,,,Y,2,2
1148,반포자이아파트7(118동),02,서울특별시 서초구 신반포로 270,37.5083592,127.0156194,7,단독,11,,,Y,2,2
1149,반포자이아파트15(133-134동),02,서울특별시 서초구 신반포로 270,37.5054488,127.0167271,7,단독,11,,,Y,2,2
1150,반포자이아파트15(133-134동),02,서울특별시 서초구 신반포로 270,37.5054488,127.0167271,7,단독,11,,,Y,2,2
1151,반포자이아파트15(133-134동),02,서울특별시 서초구 신반포로 270,37.5054488,127.0167271,7,단독,11,,,Y,2,2
1152,반포자이아파트13(130동),02,서울특별시 서초구 신반포로 270,37.5068905,127.0161959,7,단독,11,,,Y,3,3
1153,반포자이아파트13(130동),02,서울특별시 서초구 신반포로 270,37.5068905,127.0161959,7,단독,11,,,Y,3,3
1154,반포자이아파트13(130동),02,서울특별시 서초구 신반포로 270,37.5068905,127.0161959,7,단독,11,,,Y,5,5
1155,반포자이아파트14(132동),02,서울특별시 서초구 신반포로 270,37.5060615,127.0164445,7,단독,11,,,Y,2,2
1156,반포자이아파트14(132동),02,서울특별시 서초구 신반포로 270,37.5060615,127.0164445,7,단독,11,,,Y,2,2
1157,반포자이아파트14(132동),02,서울특별시 서초구 신반포로 270,37.5060615,127.0164445,7,단독,11,,,Y,2,2
1158,반포자이아파트12(129동),02,서울특별시 서초구 신반포로 270,37.5056291,127.0156754,7,단독,11,,,Y,2,2
1159,반포자이아파트12(129동),02,서울특별시 서초구 신반포로 270,37.5056291,127.0156754,7,단독,11,,,Y,3,3
1160,반포자이아파트12(129동),02,서울특별시 서초구 신반포로 270,37.5056291,127.0156754,7,단독,11,,,Y,3,3
1161,반포자이아파트8(119동),02,서울특별시 서초구 신반포로 270,37.5080529,127.014805,7,단독,11,,,Y,3,3
1162,반포자이아파트8(119동),02,서울특별시 서초구 신반포로 270,37.5080529,127.014805,7,단독,11,,,Y,2,2
1163,반포자이아파트8(119동),02,서울특별시 서초구 신반포로 270,37.5080529,127.014805,7,단독,11,,,Y,5,5
1164,반포자이아파트2(105-106동),02,서울특별시 서초구 신반포로 270,37.5068279,127.0116832,7,단독,11,,,Y,2,2
1165,반포자이아파트2(105-106동),02,서울특별시 서초구 신반포로 270,37.5068279,127.0116832,7,단독,11,,,Y,3,3
1166,반포자이아파트2(105-106동),02,서울특별시 서초구 신반포로 270,37.5068279,127.0116832,7,단독,11,,,Y,3,3
1167,반포자이아파트18(144동),02,서울특별시 서초구 신반포로 270,37.5043315,127.0173037,7,단독,11,,,Y,2,2
1168,반포자이아파트18(144동),02,서울특별시 서초구 신반포로 270,37.5043315,127.0173037,7,단독,11,,,Y,2,2
1169,반포자이아파트18(144동),02,서울특별시 서초구 신반포로 270,37.5043315,127.0173037,7,단독,11,,,Y,3,3
1170,반포자이아파트9(120동),02,서울특별시 서초구 신반포로 270,37.5078098,127.0139002,7,단독,11,,,Y,2,2
1171,반포자이아파트9(120동),02,서울특별시 서초구 신반포로 270,37.5078098,127.0139002,7,단독,11,,,Y,2,2
1172,반포자이아파트9(120동),02,서울특별시 서초구 신반포로 270,37.5078098,127.0139002,7,단독,11,,,Y,2,2
1173,반포자이아파트3(107동),02,서울특별시 서초구 신반포로 270,37.5062874,127.0107104,7,단독,11,,,Y,3,3
1174,반포자이아파트3(107동),02,서울특별시 서초구 신반포로 270,37.5062874,127.0107104,7,단독,11,,,Y,2,2
1175,반포자이아파트3(107동),02,서울특별시 서초구 신반포로 270,37.5062874,127.0107104,7,단독,11,,,Y,2,2
1176,반포자이아파트1(102-103동),02,서울특별시 서초구 신반포로 270,37.5071614,127.0108124,7,단독,11,,,Y,2,2
1177,반포자이아파트1(102-103동),02,서울특별시 서초구 신반포로 270,37.5071614,127.0108124,7,단독,11,,,Y,2,2
1178,반포자이아파트1(102-103동),02,서울특별시 서초구 신반포로 270,37.5071614,127.0108124,7,단독,11,,,Y,2,2
1179,반포자이아파트11(124동),02,서울특별시 서초구 신반포로 270,37.5077014,127.0159812,7,단독,11,,,Y,2,2
1180,반포자이아파트11(124동),02,서울특별시 서초구 신반포로 270,37.5077014,127.0159812,7,단독,11,,,Y,3,3
1181,반포자이아파트11(124동),02,서울특별시 서초구 신반포로 270,37.5077014,127.0159812,7,단독,11,,,Y,2,2
1182,반포자이아파트6(113-114동),02,서울특별시 서초구 신반포로 270,37.507855,127.0124412,7,단독,11,,,Y,2,2
1183,반포자이아파트6(113-114동),02,서울특별시 서초구 신반포로 270,37.507855,127.0124412,7,단독,11,,,Y,2,2
1184,반포자이아파트6(113-114동),02,서울특별시 서초구 신반포로 270,37.507855,127.0124412,7,단독,11,,,Y,2,2
1185,반포자이아파트17(141동),02,서울특별시 서초구 신반포로 270,37.5048001,127.0164555,7,단독,11,,,Y,3,3
1186,반포자이아파트17(141동),02,서울특별시 서초구 신반포로 270,37.5048001,127.0164555,7,단독,11,,,Y,2,2
1187,반포자이아파트17(141동),02,서울특별시 서초구 신반포로 270,37.5048001,127.0164555,7,단독,11,,,Y,2,2
1188,반포자이아파트16(137동),02,서울특별시 서초구 신반포로 270,37.5051156,127.01563,7,단독,11,,,Y,2,2
1189,반포자이아파트16(137동),02,서울특별시 서초구 신반포로 270,37.5051156,127.01563,7,단독,11,,,Y,2,2
1190,반포자이아파트16(137동),02,서울특별시 서초구 신반포로 270,37.5051156,127.01563,7,단독,11,,,Y,3,3
1191,반포자이아파트3 급속충전소,05,서울특별시 서초구 신반포로 270,37.5069447,127.0151893,50,단독,11,,,Y,2,2
1192,반포자이아파트2 급속충전소,05,서울특별시 서초구 신반포로 270,37.5064361,127.010914,50,단독,11,,,Y,2,2
1193,반포자이아파트1 급속충전소,05,서울특별시 서초구 신반포로 270,37.5052145,127.0168062,50,단독,11,,,Y,9,9
1194,롯데캐슬베네치아1(104동 3층),02,서울특별시 중구 청계천로 400,37.5708699,127.0200245,7,단독,11,,,Y,2,2
1195,롯데캐슬베네치아1(104동 3층),02,서울특별시 중구 청계천로 400,37.5708699,127.0200245,7,단독,11,,,Y,2,2
1196,롯데캐슬베네치아1(104동 3층),02,서울특별시 중구 청계천로 400,37.5708699,127.0200245,7,단독,11,,,Y,2,2
1197,롯데캐슬베네치아2(102동 3층),02,서울특별시 중구 청계천로 400,37.5711581,127.0206697,7,단독,11,,,Y,2,2
1198,롯데캐슬베네치아2(102동 3층),02,서울특별시 중구 청계천로 400,37.5711581,127.0206697,7,단독,11,,,Y,2,2
1199,롯데캐슬베네치아2(102동 3층),02,서울특별시 중구 청계천로 400,37.5711581,127.0206697,7,단독,11,,,Y,3,3
1200,롯데캐슬베네치아3(104동 4층),02,서울특별시 중구 청계천로 400,37.5712661,127.0211339,7,단독,11,,,Y,2,2
1201,롯데캐슬베네치아3(104동 4층),02,서울특별시 중구 청계천로 400,37.5712661,127.0211339,7,단독,11,,,Y,2,2
1202,롯데캐슬베네치아3(104동 4층),02,서울특별시 중구 청계천로 400,37.5712661,127.0211339,7,단독,11,,,Y,2,2
1203,롯데캐슬베네치아4(102동 4층),02,서울특별시 중구 청계천로 400,37.5714643,127.0215641,7,단독,11,,,Y,2,2
1204,롯데캐슬베네치아4(102동 4층),02,서울특별시 중구 청계천로 400,37.5714643,127.0215641,7,단독,11,,,Y,2,2
1205,롯데캐슬베네치아4(102동 4층),02,서울특별시 중구 청계천로 400,37.5714643,127.0215641,7,단독,11,,,Y,2,2
1206,롯데캐슬베네치아5(102동 5층),02,서울특별시 중구 청계천로 400,37.5708105,127.0214638,7,단독,11,,,Y,2,2
1207,롯데캐슬베네치아5(102동 5층),02,서울특별시 중구 청계천로 400,37.5708105,127.0214638,7,단독,11,,,Y,2,2
1208,롯데캐슬베네치아5(102동 5층),02,서울특별시 중구 청계천로 400,37.5708105,127.0214638,7,단독,11,,,Y,2,2
1209,금천롯데캐슬골드파크2차오피스텔1(204동),02,서울특별시 금천구 벚꽃로 30,37.4585957,126.8947546,7,단독,11,,,N,9,9
1210,금천롯데캐슬골드파크2차오피스텔1(204동),02,서울특별시 금천구 벚꽃로 30,37.4585957,126.8947546,7,단독,11,,,N,9,9
1211,금천롯데캐슬골드파크2차오피스텔1(204동),02,서울특별시 금천구 벚꽃로 30,37.4585957,126.8947546,7,단독,11,,,N,9,9
1212,금천롯데캐슬골드파크2차오피스텔2(203동),02,서울특별시 금천구 벚꽃로 30,37.4584872,126.8943875,7,단독,11,,,Y,9,9
1213,금천롯데캐슬골드파크2차오피스텔2(203동),02,서울특별시 금천구 벚꽃로 30,37.4584872,126.8943875,7,단독,11,,,Y,9,9
1214,금천롯데캐슬골드파크2차오피스텔2(203동),02,서울특별시 금천구 벚꽃로 30,37.4584872,126.8943875,7,단독,11,,,Y,9,9
1215,(주)이에스종합건설,02,서울특별시 양천구 곰달래로10길 21-2,37.5282363,126.837558,7,단독,11,,,Y,2,2
1216,한유에너지 급속충전소,05,서울특별시 관악구 남부순환로 1883,37.4790967,126.9591691,50,단독,11,,,Y,2,2
1217,부띠크모나코 급속충전소,05,서울특별시 서초구 서초대로 397,37.4974341,127.0245167,50,단독,11,,,Y,2,2
1218,부띠크모나코 급속충전소,05,서울특별시 서초구 서초대로 397,37.4974341,127.0245167,50,단독,11,,,Y,2,2
1219,부띠크모나코 급속충전소,05,서울특별시 서초구 서초대로 397,37.4974341,127.0245167,50,단독,11,,,Y,2,2
1220,광운대학교 급속충전소,05,서울특별시 노원구 광운로 20,37.6193203,127.0583381,100,동시,11,,,Y,2,2
1221,서울신문사 급속충전소,05,서울특별시 중구 세종대로 124,37.5674199,126.9778737,50,단독,11,,,Y,2,2
1222,하나은행방배지점 급속충전소,04,서울특별시 서초구 방배로 131,37.485617,126.9943923,100,동시,11,,,N,2,2
1223,목동현대파크빌2(지하4층),02,서울특별시 양천구 목동동로 391,37.5357484,126.8801414,7,단독,11,,,Y,3,3
1224,부영그린타운1차2(지하4층),02,서울특별시 양천구 목동동로 393,37.5363023,126.8798633,7,단독,11,,,Y,2,2
1225,부영그린타운1차3(지하2층),02,서울특별시 양천구 목동동로 393,37.5362126,126.8802594,7,단독,11,,,Y,2,2
1226,정릉천복개주차장(구),02,서울특별시 동대문구 정릉천동로 83,37.5797865,127.0349611,7,단독,11,,,Y,9,9
1227,정릉천복개주차장(구),02,서울특별시 동대문구 정릉천동로 83,37.5797865,127.0349611,7,단독,11,,,Y,9,9
1228,정릉천복개주차장(구),02,서울특별시 동대문구 정릉천동로 83,37.5797865,127.0349611,7,단독,11,,,Y,9,9
1229,개포래미안포레스트1(A블럭 105동 B4F),02,서울특별시 강남구 개포로 264,37.4800746,127.0533075,7,동시,11,,,Y,2,2
1230,개포래미안포레스트1(A블럭 105동 B4F),02,서울특별시 강남구 개포로 264,37.4800746,127.0533075,7,동시,11,,,Y,3,3
1231,개포래미안포레스트1(A블럭 105동 B4F),02,서울특별시 강남구 개포로 264,37.4800746,127.0533075,7,동시,11,,,Y,2,2
1232,개포래미안포레스트1(A블럭 105동 B4F),02,서울특별시 강남구 개포로 264,37.4800746,127.0533075,7,동시,11,,,Y,2,2
1233,개포래미안포레스트2(A블럭 108동 B4F),02,서울특별시 강남구 개포로 264,37.4797231,127.05359,7,동시,11,,,Y,2,2
1234,개포래미안포레스트2(A블럭 108동 B4F),02,서울특별시 강남구 개포로 264,37.4797231,127.05359,7,동시,11,,,Y,2,2
1235,개포래미안포레스트2(A블럭 108동 B4F),02,서울특별시 강남구 개포로 264,37.4797231,127.05359,7,동시,11,,,Y,2,2
1236,개포래미안포레스트2(A블럭 108동 B4F),02,서울특별시 강남구 개포로 264,37.4797231,127.05359,7,동시,11,,,Y,3,3
1237,개포래미안포레스트3(B블럭 126동 B2F),02,서울특별시 강남구 개포로 264,37.477974,127.0559968,7,동시,11,,,Y,2,2
1238,개포래미안포레스트3(B블럭 126동 B2F),02,서울특별시 강남구 개포로 264,37.477974,127.0559968,7,동시,11,,,Y,2,2
1239,동림오피스텔,02,서울특별시 관악구 남부순환로 1924,37.4769082,126.9628781,7,단독,11,,,N,2,2
1240,우성캐릭터199아파트,02,서울특별시 강남구 언주로 118,37.486916,127.0518555,7,단독,11,,,Y,2,2
1241,우성캐릭터199아파트,02,서울특별시 강남구 언주로 118,37.486916,127.0518555,7,동시,11,,,Y,9,9
1242,우성캐릭터199아파트,02,서울특별시 강남구 언주로 118,37.486916,127.0518555,7,단독,11,,,Y,2,2
1243,우성캐릭터199아파트,02,서울특별시 강남구 언주로 118,37.486916,127.0518555,7,단독,11,,,Y,2,2
1244,우성캐릭터199아파트,02,서울특별시 강남구 언주로 118,37.486916,127.0518555,7,단독,11,,,Y,2,2
1245,프리우스역삼2차아파트,02,서울특별시 강남구 테헤란로13길 31-7,37.5013326,127.0312852,7,단독,11,,,Y,2,2
1246,한강홍수통제소,02,서울특별시 서초구 동작대로 328,37.5038974,126.9807784,7,단독,11,,,Y,2,2
1247,한강홍수통제소,02,서울특별시 서초구 동작대로 328,37.5038974,126.9807784,7,단독,11,,,Y,2,2
1248,한강홍수통제소,02,서울특별시 서초구 동작대로 328,37.5038974,126.9807784,7,단독,11,,,Y,2,2
1249,국립정신건강센터,02,서울특별시 광진구 용마산로 127,37.5650127,127.0857921,7,단독,11,,,Y,2,2
1250,국립정신건강센터,02,서울특별시 광진구 용마산로 127,37.5650127,127.0857921,7,단독,11,,,Y,2,2
1251,국립정신건강센터,02,서울특별시 광진구 용마산로 127,37.5650127,127.0857921,7,단독,11,,,Y,2,2
1252,정릉천복개주차장,02,서울특별시 동대문구 정릉천동로 83,37.579786542,127.03496111,7,단독,11,,,Y,2,2
1253,정릉천복개주차장,02,서울특별시 동대문구 정릉천동로 83,37.579786542,127.03496111,7,단독,11,,,Y,2,2
1254,정릉천복개주차장,02,서울특별시 동대문구 정릉천동로 83,37.579786542,127.03496111,7,단독,11,,,Y,2,2
1255,독산더타워1,02,서울특별시 금천구 범안로 1212,37.4661206,126.8964453,7,동시,11,,,N,2,2
1256,독산더타워1,02,서울특별시 금천구 범안로 1212,37.4661206,126.8964453,7,동시,11,,,N,2,2
1257,독산더타워2,02,서울특별시 금천구 범안로 1212,37.4654899,126.8963558,7,동시,11,,,N,2,2
1258,독산더타워2,02,서울특별시 금천구 범안로 1212,37.4654899,126.8963558,7,단독,11,,,N,2,2
1259,독산더타워2,02,서울특별시 금천구 범안로 1212,37.4654899,126.8963558,7,동시,11,,,N,2,2
1260,부영그린타운1차4(지하3층),02,서울특별시 양천구 목동동로 393,37.5361847,126.8800512,7,단독,11,,,Y,3,3
1261,반포자이아파트10(121동),02,서울특별시 서초구 신반포로 270,37.50739530,127.01410366,7,단독,11,,,Y,3,3
1262,반포자이아파트10(121동),02,서울특별시 서초구 신반포로 270,37.50739530,127.01410366,7,단독,11,,,Y,2,2
1263,반포자이아파트10(121동),02,서울특별시 서초구 신반포로 270,37.50739530,127.01410366,7,단독,11,,,Y,2,2
1264,서울과학기술대학교 급속충전소,04,서울특별시 노원구 공릉로 232,37.6308405,127.0814424,100,동시,11,,,Y,2,2
1265,서울과학기술대학교 급속충전소,04,서울특별시 노원구 공릉로 232,37.6308405,127.0814424,100,동시,11,,,Y,2,2
1266,대륭테크노타운6차,02,서울특별시 금천구 서부샛길 648,37.4812045,126.8761807,7,동시,11,,,N,2,2
1267,대륭테크노타운6차,02,서울특별시 금천구 서부샛길 648,37.4812045,126.8761807,7,동시,11,,,N,2,2
1268,대륭테크노타운6차,02,서울특별시 금천구 서부샛길 648,37.4812045,126.8761807,7,단독,11,,,N,2,2
1269,대륭테크노타운6차,02,서울특별시 금천구 서부샛길 648,37.4812045,126.8761807,7,단독,11,,,N,2,2
1270,대륭테크노타운6차,02,서울특별시 금천구 서부샛길 648,37.4812045,126.8761807,7,동시,11,,,N,2,2
1271,대륭테크노타운6차,02,서울특별시 금천구 서부샛길 648,37.4812045,126.8761807,7,동시,11,,,N,2,2
1272,신도림3차동아아파트,02,서울특별시 구로구 신도림로 78,37.5099072,126.8841809,7,동시,11,,,Y,2,2
1273,신도림3차동아아파트,02,서울특별시 구로구 신도림로 78,37.5099072,126.8841809,7,단독,11,,,Y,2,2
1274,신도림3차동아아파트,02,서울특별시 구로구 신도림로 78,37.5099072,126.8841809,7,동시,11,,,Y,2,2
1275,신도림3차동아아파트,02,서울특별시 구로구 신도림로 78,37.5099072,126.8841809,7,동시,11,,,Y,2,2
1276,신도림3차동아아파트,02,서울특별시 구로구 신도림로 78,37.5099072,126.8841809,7,동시,11,,,Y,2,2
1277,신안아파트,02,서울특별시 강서구 양천로30길 123-9,37.56875643,126.8234049,7,단독,11,,,Y,2,2
1278,신안아파트,02,서울특별시 강서구 양천로30길 123-9,37.56875643,126.8234049,7,단독,11,,,Y,2,2
1279,신안아파트,02,서울특별시 강서구 양천로30길 123-9,37.56875643,126.8234049,7,단독,11,,,Y,3,3
1280,신안아파트,02,서울특별시 강서구 양천로30길 123-9,37.56875643,126.8234049,7,단독,11,,,Y,3,3
1281,대방산업개발,02,서울특별시 강서구 공항대로 248,37.5584039,126.8348939,7,동시,11,,,N,2,2
1282,대방산업개발,02,서울특별시 강서구 공항대로 248,37.5584039,126.8348939,7,동시,11,,,N,2,2
1283,대방산업개발,02,서울특별시 강서구 공항대로 248,37.5584039,126.8348939,7,단독,11,,,N,2,2
1284,대방산업개발,02,서울특별시 강서구 공항대로 248,37.5584039,126.8348939,7,동시,11,,,N,2,2
1285,대방산업개발,02,서울특별시 강서구 공항대로 248,37.5584039,126.8348939,7,동시,11,,,N,2,2
1286,도림한라아파트,02,서울특별시 영등포구 도신로15라길 5-7,37.50785333,126.89738203,7,동시,11,,,Y,2,2
1287,도림한라아파트,02,서울특별시 영등포구 도신로15라길 5-7,37.50785333,126.89738203,7,단독,11,,,Y,2,2
1288,도림한라아파트,02,서울특별시 영등포구 도신로15라길 5-7,37.50785333,126.89738203,7,동시,11,,,Y,2,2
1289,청계푸르지오시티,02,서울특별시 동대문구 천호대로 257,37.5689571,127.0505798,7,동시,11,,,N,2,2
1290,청계푸르지오시티,02,서울특별시 동대문구 천호대로 257,37.5689571,127.0505798,7,동시,11,,,N,2,2
1291,청계푸르지오시티,02,서울특별시 동대문구 천호대로 257,37.5689571,127.0505798,7,단독,11,,,N,2,2
1292,청계푸르지오시티,02,서울특별시 동대문구 천호대로 257,37.5689571,127.0505798,7,동시,11,,,N,2,2
1293,청계푸르지오시티,02,서울특별시 동대문구 천호대로 257,37.5689571,127.0505798,7,동시,11,,,N,2,2
1294,대청타워,02,서울특별시 강남구 개포로 623,37.4943412,127.0796478,7,동시,11,,,N,2,2
1295,대청타워,02,서울특별시 강남구 개포로 623,37.4943412,127.0796478,7,동시,11,,,N,2,2
1296,대청타워,02,서울특별시 강남구 개포로 623,37.4943412,127.0796478,7,단독,11,,,N,2,2
1297,대청타워,02,서울특별시 강남구 개포로 623,37.4943412,127.0796478,7,동시,11,,,N,2,2
1298,대청타워,02,서울특별시 강남구 개포로 623,37.4943412,127.0796478,7,동시,11,,,N,2,2
